STATION_ID,STATION_NAME,STATION_GRP_SEQ,STATION_GRP_NAME,STATION_POST_NO,STATION_ADDR1,STATION_ADDR2,STATION_LATITUDE,STATION_LONGITUDE,STATION_USE_YN,REG_DTTM,거치대개수
ST-10,108. 서교동 사거리,12,마포구,4034,서울특별시 마포구 양화로 93,427,37.55274582,126.9186173,Y,2015-09-06 23:51,10
ST-100,503. 더샵스타시티 C동 앞,15,광진구,5065,서울특별시 광진구 아차산로 262,더샵스타시티 C동 앞,37.53666687,127.0735931,C,2015-10-07 11:47,15
ST-1000,729. 서부식자재마트 건너편,18,양천구,8101,서울특별시 양천구 신정동 236 ,서부식자재마트 건너편,37.51037979,126.8667984,Y,2017-11-01 16:00,10
ST-1001,730. 서서울호수공원,18,양천구,7916,서울특별시 양천구 남부순환로4길20 ,서서울호수공원,0,0,N,2017-11-01 16:00,0
ST-1002,731. 서울시 도로환경관리센터,18,양천구,7990,서울특별시 양천구 목동동로 316-6,서울시 도로환경관리센터,37.5298996,126.8765411,Y,2017-11-01 16:00,10
ST-1003,732. 신월동 이마트,18,양천구,7902,서울특별시 양천구 화곡로 59,신월동 이마트,37.53955078,126.8283005,Y,2017-11-01 16:00,10
ST-1004,733. 신정이펜하우스314동,18,양천구,8050,서울특별시 양천구 신정이펜1로50 ,신정이펜하우스314동,37.51409912,126.8310013,Y,2017-11-01 16:00,10
ST-1005,734. 신트리공원 입구,18,양천구,8091,서울특별시 양천구 신정동 310-8 ,신트리공원 입구,37.51395035,126.8560562,Y,2017-11-01 16:00,10
ST-1006,735. 영도초등학교,18,양천구,7982,서울특별시 양천구 목동중앙로 70 ,영도초등학교,37.53643036,126.871521,Y,2017-11-01 16:00,10
ST-1007,736. 오솔길공원,18,양천구,8040,서울특별시 양천구 남부순환로70길11-9,오솔길공원,37.52219009,126.8367004,Y,2017-11-01 16:00,10
ST-1008,737. 장수공원,18,양천구,8028,서울특별시 양천구 신월로 894 ,장수공원,37.52256012,126.8494797,Y,2017-11-01 16:00,10
ST-1009,738. 신월 청소년 문화센터,18,양천구,7906,서울특별시 양천구 신월동 263,신월 청소년 문화센터,0,0,N,2017-11-01 16:00,0
ST-101,504. 신자초교입구교차로,15,광진구,5098,서울특별시 광진구 뚝섬로 596,신자초교입구교차로,37.53297043,127.0759354,Y,2015-10-07 11:48,9
ST-1010,739. 신월사거리,18,양천구,7906,서울특별시 양천구 신월동 263,신월사거리,37.53620148,126.8277969,Y,2017-11-01 16:00,15
ST-1011,740. 으뜸공원,18,양천구,7906,서울특별시 양천구 가로공원로 133,으뜸공원,37.53636932,126.8317108,Y,2017-11-01 16:00,10
ST-1012,741. 화곡로 입구 교차로,18,양천구,7908,서울특별시 양천구 신월동 258,화곡로 입구 교차로,37.53952026,126.8254013,Y,2017-11-01 16:00,10
ST-1013,742. 등촌역 5번 출구 뒤,18,양천구,7946,서울특별시 양천구 등촌로 236,등촌역 5번 출구 뒤,37.55073166,126.8645783,Y,2017-11-01 16:00,10
ST-1014,743. 현대6차아파트 101동 옆,18,양천구,8110,서울특별시 양천구 신정동 735-5,현대6차아파트 101동 옆,37.50889969,126.8426819,Y,2017-11-01 16:00,10
ST-1015,744. 신목동역 2번 출구,18,양천구,7978,서울특별시 양천구 목동중앙로 212 앞,신목동역 2번 출구,37.54384232,126.8825455,Y,2017-11-01 16:00,10
ST-1016,745. 강서초등학교,18,양천구,7930,서울특별시 양천구 오목로 31 부근,강서초등학교,37.52228165,126.8396988,Y,2017-11-01 16:00,10
ST-1017,746. 목동2단지 상가,18,양천구,7981,서울특별시  양천구 목동 902-5 ,목동2단지 상가,37.53650284,126.8777466,Y,2017-11-01 16:00,10
ST-1018,747. 목동3단지 상가,18,양천구,7982,서울특별시 양천구 목동 903-6,목동3단지 상가,37.53458023,126.8756485,Y,2017-11-01 16:00,10
ST-1019,748. 목동운동장,18,양천구,7990,서울특별시 양천구 안양천로 939,목동운동장,37.53025055,126.879303,Y,2017-11-01 16:00,15
ST-102,505. 자양사거리 광진아크로텔 앞,15,광진구,5026,서울특별시 광진구 아차산로 355,타워더모스트 광진아크로텔,37.53701019,127.0822449,Y,2015-10-07 11:49,10
ST-1020,934. 신사동 성당,20,은평구,3440,서울특별시 은평구 신사동 41-3,신사동 성당,37.59714127,126.9095993,Y,2017-11-01 16:00,15
ST-1021,935. 역촌역 1번 출구,20,은평구,3404,서울특별시 은평구 역촌동 17-55,역촌역 1번 출구,37.60520172,126.9221115,T,2017-11-01 16:00,7
ST-1022,936. 입곡삼거리,20,은평구,3307,서울특별시 진관동 2-6,입곡삼거리,0,0,N,2017-11-01 16:00,2
ST-1023,937. 상림마을 롯데캐슬2단지 옆,20,은평구,3300,서울특별시 은평구 진관동 30-23,상림마을 롯데캐슬2단지 옆,37.64585114,126.9237976,Y,2017-11-01 16:00,15
ST-1024,938. 금암 문화공원,20,은평구,3300,서울특별시 진관동 44-28 ,금암 문화공원,37.64468384,126.918457,Y,2017-11-01 16:00,15
ST-1025,939. 은평구청 교차로,20,은평구,3471,서울특별시 응암동 82-31,은평구청 교차로,37.60169983,126.9274216,Y,2017-11-01 16:00,15
ST-1027,941. 은평뉴타운 도서관,20,은평구,3306,서울특별시 진관동 141-27,은평뉴타운 도서관,37.63722229,126.9333038,Y,2017-11-01 16:00,13
ST-1028,942. 상림마을 생태공원,20,은평구,3303,서울특별시 진관동 16-4,상림마을 생태공원,37.64408112,126.9292831,Y,2017-11-01 16:00,9
ST-1029,943. 은평구청 보건소,20,은평구,3384,서울특별시 녹번동 84,은평구청 보건소,37.60240173,126.9286499,Y,2017-11-01 16:00,10
ST-103,506. 금호 어울림 아파트 앞,14,성동구,4802,서울특별시 성동구 광나루로 249,송정금호어울림 아파트 앞,37.54906082,127.0577927,Y,2015-10-07 11:50,7
ST-1030,944. 유성빌딩 옆,20,은평구,3378,서울특별시 은평구 녹번동 141-92,유성빌딩 옆,0,0,N,2017-11-01 16:00,5
ST-1031,945. 기자촌 사거리,20,은평구,3308,서울특별시 은평구 진관동 149-17,기자촌 사거리,37.63414001,126.9323425,Y,2017-11-01 16:00,10
ST-1032,946. 독바위역 ,20,은평구,3354,서울특별시 불광로 129,독바위역 ,37.61843872,126.9328842,Y,2017-11-01 16:00,10
ST-1033,947. 연신내 선일하이츠빌 정류소,20,은평구,3341,서울특별시 불광동 484-165,연신내 선일하이츠빌 정류소,37.62266922,126.9199905,Y,2017-11-01 16:00,10
ST-1034,948. 디지털미디어 시티역 4번출구,20,은평구,3504,서울특별시 증산동 239,디지털미디어 시티역 4번출구,37.57720184,126.9023514,Y,2017-11-01 16:00,10
ST-1035,949. 연신내역 1번 출구 ,20,은평구,3345,서울특별시 불광동 487-2,연신내역 1번 출구 ,37.61978149,126.9208069,Y,2017-11-01 16:00,7
ST-1036,950. 구산역 2번 출구 ,20,은평구,3398,서울특별시 역촌동 1-57,구산역 2번 출구 ,37.61077881,126.9173508,Y,2017-11-01 16:00,5
ST-1037,951. 연신내역 6번출구옆,20,은평구,3330,서울특별시 갈현동 389-15 ,연신내역 6번출구옆,37.61930466,126.9205933,Y,2017-11-01 16:00,15
ST-1038,952. 서울연신중학교,20,은평구,3342,서울특별시 불광동 400-4번지,서울연신중학교,37.62265015,126.9252472,Y,2017-11-01 16:00,10
ST-1039,953. 서울연신초등학교,20,은평구,3338,서울특별시 불광동 73-1번지 ,서울연신초등학교,37.6257782,126.9288178,Y,2017-11-01 16:00,10
ST-104,507. 성수아이에스비즈타워 앞,14,성동구,4795,서울특별시 성동구 성수이로 147,아이에스비즈타워 앞,37.54820251,127.0571137,Y,2015-10-07 11:50,7
ST-1040,1023. 한국종합기술사옥 앞,21,강동구,5288,서울특별시 강동구 상일로6길 21 한국종합기술사옥,,37.54998398,127.1747055,Y,2017-11-01 16:00,15
ST-1041,1024.  강동구청 앞,21,강동구,5397,서울특별시 강동구 성내로 28 강동빌딩,,37.52929688,127.1231537,Y,2017-11-01 16:00,10
ST-1042,1025. 상일초등학교,21,강동구,5283,서울특별시  상일동 440-3,상일초등학교,37.54684067,127.1725159,Y,2017-11-01 16:00,10
ST-1043,1026. 대명초교 입구 교차로,21,강동구,5271,서울특별시 강동구 명일동 59,,37.54653549,127.155838,Y,2017-11-01 16:00,14
ST-1044,1027. 프라자 아파트 앞,21,강동구,5347,서울특별시 강동구 천호대로 1240 프라자아파트,,37.53596115,127.1478195,Y,2017-11-01 16:00,20
ST-1045,1028. 포레스 주상복합 빌딩,21,강동구,5385,서울특별시 강동구 천호옛길 41 포레스아파트,,37.53310776,127.1227722,Y,2017-11-01 16:00,10
ST-1046,1029. 롯데 시네마,21,강동구,5378,서울특별시 강동구 성내동 43-2,,37.53655624,127.1255341,Y,2017-11-01 16:00,10
ST-1047,1030. 미호 플랜트 앞,21,강동구,5400,서울특별시 강동구 강동대로 143-22,,37.52703094,127.1220627,Y,2017-11-01 16:00,15
ST-1048,1031. 암사동 CBIS,21,강동구,5238,서울특별시 강동구 올림픽로 836,,37.55582047,127.1299133,Y,2017-11-01 16:00,15
ST-1049,1032. 선사고등학교,21,강동구,5237,서울특별시 강동구 암사동 524,,37.55672836,127.136261,Y,2017-11-01 16:00,20
ST-105,508. 성수아카데미타워 앞,14,성동구,4797,서울특별시 성동구 성수이로 118,라성아카데미타워 앞,37.54516602,127.0575104,Y,2015-10-07 11:51,10
ST-1050,1033. 고덕동 아남아파트,21,강동구,5204,서울특별시 강동구 고덕동 469,,37.5580101,127.1447525,Y,2017-11-01 16:00,10
ST-1051,1034. 고덕동 래미안 힐스테이트,21,강동구,5229,서울특별시 강동구 고덕동 585-4,,37.5618782,127.1507874,T,2017-11-01 16:00,15
ST-1052,1035. 고덕역 4번출구,21,강동구,5269,서울특별시 강동구 명일동 46-6,,37.55509567,127.1552811,Y,2017-11-01 16:00,20
ST-1053,1036. 고덕동 주양쇼핑,21,강동구,5269,서울특별시 강동구 명일동 48-25,,37.55199051,127.1533127,Y,2017-11-01 16:00,10
ST-1054,1037. 강일리버파크 6단지,21,강동구,5213,서울특별시 강동구 강일동 684-2,,37.56256485,127.1776123,Y,2017-11-01 16:00,10
ST-1055,1038. 강일 다솜 어린이 공원,21,강동구,5208,서울특별시 강동구 강일동 667-4,,37.56863785,127.1748047,Y,2017-11-01 16:00,10
ST-1056,1039. 고덕초등학교,21,강동구,5223,서울특별시 강동구 고덕로83길 55,,37.56129837,127.1678467,Y,2017-11-01 16:00,7
ST-1057,1040. 강일동 에너지 마루,21,강동구,5202,서울특별시 고덕동 375,강일동 에너지 마루,37.56719971,127.1634598,C,2017-11-01 16:00,0
ST-1058,1041. 묘곡초등학교,21,강동구,5232,서울특별시 강동구 동남로79길 46 서울묘곡초등학교,,37.55916214,127.1533203,Y,2017-11-01 16:00,10
ST-1059,1042. 강일리버파크 2~5단지,21,강동구,5208,서울특별시 강동구 아리수로97길 68 강일리버파크2단지아파트,,37.5685463,127.1770096,Y,2017-11-01 16:00,10
ST-106,509. 이마트 버스정류소 옆,14,성동구,4781,서울특별시 성동구 뚝섬로 379,이마트 버스정류소 옆,37.53965378,127.0525894,Y,2015-10-07 11:52,20
ST-1060,1043. 일자산 체육관,21,강동구,5357,서울특별시 둔촌동 산 125,일자산 체육관,0,0,N,2017-11-01 16:00,20
ST-1061,1044. 굽은다리역,21,강동구,5296,서울특별시 강동구 천호동 42-1,,37.54540634,127.1426773,Y,2017-11-01 16:00,15
ST-1062,1150. 송정역 1번출구,22,강서구,7619,서울특별시 강서구 공항대로3길 18,송정역 1번출구,37.56155014,126.8104782,Y,2017-11-01 16:00,10
ST-1063,1151. 마곡역1번출구,22,강서구,7800,서울특별시 강서구 마곡동 727-716,마곡역2번출구,37.56023407,126.8234711,Y,2017-11-01 16:00,25
ST-1064,1152. 마곡역교차로,22,강서구,7800,서울특별시 강서구 마곡동 728-168,마곡역7번출구,37.55831146,126.8265228,Y,2017-11-01 16:00,10
ST-1065,"1153. 발산역 1번, 9번 인근 대여소",22,강서구,7591,서울특별시 강서구 공항대로 281,발산역 4번출구,37.5588913,126.8372192,Y,2017-11-01 16:00,10
ST-1066,1154. 마곡수명산파크2단지 교차로,22,강서구,7634,서울특별시 서울 강서구 내발산동 741-8,마곡수명산파크2단지 교차로,0,0,N,2017-11-01 16:00,0
ST-1067,1155. 기쁜우리복지관,22,강서구,7524,서울특별시 강서구 가양동 1458-15 ,기쁜우리복지관,37.56925964,126.8484192,Y,2017-11-01 16:00,10
ST-1068,1156. 한국여자 농구연맹 건너편,22,강서구,7648,서울특별시 강서구 화곡동 1136-1,한국여자 농구연맹 건너편,0,0,N,2017-11-01 16:00,0
ST-1069,1157. 강서구청,22,강서구,7658,서울특별시 강서구 화곡로 302,강서구청,37.55065918,126.8497696,Y,2017-11-01 16:00,8
ST-107,510. 서울숲 남문 버스정류소 옆,14,성동구,4766,서울특별시 성동구 왕십리로11길 9,서울숲남문 버스정류소 옆,37.54122162,127.0438004,Y,2015-10-07 11:55,10
ST-1070,1251. 석촌역 2번출구,23,송파구,5626,서울특별시 송파구 송파동 68 ,석촌역 2번출구,37.50593185,127.1077499,Y,2017-11-01 16:00,10
ST-1072,1253. 오금역 3번 출구 뒤,23,송파구,5715,서울특별시  송파구 가락동 10-15 ,오금역 3번 출구 뒤,37.50165176,127.1281815,Y,2017-11-01 16:00,10
ST-1073,1254. 오금역 7번출구,23,송파구,5661,서울특별시 서울 송파구 오금동 44-2 ,오금역 7번출구,0,0,N,2017-11-01 16:00,4
ST-1074,1255. 개롱역 3번출구,23,송파구,5769,서울특별시 서울 송파구 가락동 165-2 ,개롱역 3번출구,0,0,N,2017-11-01 16:00,10
ST-1075,1256. 문정현대아파트 교차로,23,송파구,5795,서울특별시 송파구 문정동 3-2 ,문정현대아파트 교차로,37.49113083,127.1258087,Y,2017-11-01 16:00,8
ST-1076,1257. 가락시장역 롯데마트앞,23,송파구,5833,서울특별시 송파구 가락동 214-15 ,가락시장역 롯데마트앞,37.49209976,127.1177521,Y,2017-11-01 16:00,20
ST-1077,1258. 가락미륭아파트 앞,23,송파구,5784,서울특별시 서울 송파구 가락동 195-4,가락미륭아파트 앞,37.49319839,127.1289978,Y,2017-11-01 16:00,10
ST-1078,1259. 방이역 1번출구,23,송파구,5657,서울특별시 송파구 오금동 17-20,방이역 1번출구,37.50898361,127.1265945,Y,2017-11-01 16:00,15
ST-1079,1260. 방이동 한양3차아파트 옆,23,송파구,5647,서울특별시 송파구 방이동 225-1,방이동 한양3차아파트 옆,37.50630188,127.1213989,Y,2017-11-01 16:00,8
ST-108,511. 서울숲역 4번 출구 옆,14,성동구,4769,서울특별시 성동구 왕십리로 지하77,서울숲역 4번 출구 옆,37.54458237,127.0446091,Y,2015-10-07 11:56,16
ST-1080,1261. 석촌역 1번출구 앞,23,송파구,5626,서울특별시 송파구 송파동 69 ,석촌역 1번출구 앞,37.50582886,127.1070557,C,2017-11-01 16:00,0
ST-1081,1262. 송파여성문화회관 앞,23,송파구,5667,서울특별시 송파구 송파동 2-3 ,송파여성문화회관 앞,37.50580215,127.1097183,Y,2017-11-01 16:00,10
ST-1082,1263. 장지공영차고지,23,송파구,5791,서울특별시 송파구 장지동 861-6,장지공영차고지,37.48054123,127.1370163,Y,2017-11-01 16:00,10
ST-1083,1264. 천호역 10번 출구 앞,23,송파구,5520,서울특별시 송파구 풍납동 490-16,천호역 10번 출구 앞,37.53858185,127.1228027,Y,2017-11-01 16:00,8
ST-1084,1265. 문정동 근린공원,23,송파구,5807,서울특별시 송파구 문정동 38-3,문정동 근린공원,37.48598862,127.1247635,Y,2017-11-01 16:00,10
ST-1085,1266. 문정동 글샘 공원,23,송파구,5841,서울특별시 송파구 문정동 627,장지동 글샘 공원,37.47880936,127.1200028,Y,2017-11-01 16:00,10
ST-1086,1267. 올림픽공원 남2문 앞,23,송파구,5540,서울특별시 송파구 올림픽로 424,올림픽공원 남2문 앞,37.51424026,127.1230698,Y,2017-11-01 16:00,15
ST-1087,1268. 몽촌토성역 1번출구 옆,23,송파구,5540,서울특별시 송파구 방이동 88-21 ,몽촌토성역 1번출구 옆,37.51728821,127.1141968,Y,2017-11-01 16:00,15
ST-1088,1269. 리센츠아파트 ,23,송파구,5502,서울특별시 송파구 올림픽로 135,리센츠아파트 ,37.51194382,127.091217,Y,2017-11-01 16:00,10
ST-1089,1271. 송파도서관,23,송파구,5725,서울특별시 송파구 동남로 263,송파도서관,37.49998474,127.1353912,Y,2017-11-01 16:00,15
ST-109,512. 뚝섬역 1번 출구 옆,14,성동구,4778,서울특별시 성동구 아차산로 18,뚝섬역 1번 출구 옆,37.5485611,127.0450058,Y,2015-10-07 11:56,15
ST-1090,1272. 송파 글마루도서관,23,송파구,5812,서울특별시  송파구 충민로 120,송파 글마루도서관,0,0,N,2017-11-01 16:00,15
ST-1091,1273. 석촌호수 교차로,23,송파구,5608,서울특별시 송파구 삼학사로 136,석촌호수 교차로,0,0,N,2017-11-01 16:00,3
ST-1092,1274. 영파여고 앞,23,송파구,5529,서울특별시 송파구 올림픽로 565,영파여고 앞,37.53284836,127.121048,Y,2017-11-01 16:00,20
ST-1093,1442. (구)신한은행 중랑교지점,25,중랑구,2103,서울특별시 중화동 50-8,(구)신한은행 중랑교지점,37.59859085,127.0798187,Y,2017-11-01 16:00,8
ST-1094,1443. 구립망우청소년독서실,25,중랑구,2172,서울특별시 중랑구 망우동 534-23 ,구립망우청소년독서실,37.59552002,127.0987778,Y,2017-11-01 16:00,10
ST-1095,1444. 면목4치안센터,25,중랑구,2247,서울특별시 면목동 646-4,면목4치안센터,37.57402802,127.0805435,Y,2017-11-01 16:00,10
ST-1096,1445. 용마지구대,25,중랑구,2236,서울특별시 면목동 197-5,용마지구대,37.5799408,127.0793991,Y,2017-11-01 16:00,10
ST-1097,1446. 중랑전화국 교차로,25,중랑구,2143,서울특별시 중랑구 면목동 282-8,중랑전화국 교차로,37.59130096,127.0803299,Y,2017-11-01 16:00,10
ST-1098,1447. 면목역 3번출구,25,중랑구,2146,서울특별시 면목동 120-2,면목역 3번출구,37.58890152,127.0872803,Y,2017-11-01 16:00,15
ST-1099,1448. 코스트코 상봉점,25,중랑구,2149,서울특별시 상봉동 160-3,코스트코 상봉점,37.59732056,127.089798,Y,2017-11-01 16:00,15
ST-11,109. 제일빌딩 앞,12,마포구,4074,서울특별시 마포구 어울마당로 26,12월 02일,37.54769135,126.9199829,Y,2015-09-07 1:27,10
ST-110,400. 상암한화오벨리스크 1차 앞,12,마포구,3918,서울특별시 마포구 구룡길 19,상암한화오벨리스크 1차 앞,37.58752441,126.8830032,Y,2015-10-07 11:57,15
ST-1100,1526. 수유동 채선당앞,34,강북구,1062,서울특별시 강북구 수유동 140,수유동 채선당앞,37.64173889,127.0246277,Y,2017-11-01 16:00,8
ST-1101,1527. 미아역 1번 출구 뒤,34,강북구,1133,서울특별시 강북구 미아동 194-1,미아역 1번 출구 뒤,37.62733459,127.0260544,Y,2017-11-01 16:00,10
ST-1102,1528. 삼각산동 주민센터,34,강북구,1199,서울특별시 미아동 813-8,삼각산동 주민센터,37.61503601,127.0206986,Y,2017-11-01 16:00,10
ST-1103,1529. 미아동 한국전력공사,34,강북구,1132,서울특별시 미아동 194-1,미아동 한국전력공사,37.63018036,127.02491,Y,2017-11-01 16:00,15
ST-1104,1530. 광산사거리,34,강북구,1048,서울특별시 강북구 노해로 87 ,광산사거리,37.64355087,127.0223465,Y,2017-11-01 16:00,10
ST-1105,1531. 미아사거리 1번 출구,34,강북구,1215,서울특별시 강북구 미아동 66-1,미아사거리 1번 출구,37.61395645,127.0302506,Y,2017-11-01 16:00,10
ST-1106,1532. 번3동 주민센터 교차로,34,강북구,1230,서울특별시 강북구 번동 2-2,번3동 주민센터 교차로,37.62635422,127.0474472,Y,2017-11-01 16:00,10
ST-1107,"1533. 번동 주공3, 4단지 교차로",34,강북구,10807,서울특별시 강북구 번동 254,"번동 주공3, 4단지 교차로",37.62991714,127.0409164,Y,2017-11-01 16:00,10
ST-1108,1534. 북서울 꿈의 숲 동문,34,강북구,1231,서울특별시 강북구 번동 105,북서울 꿈의 숲 동문,37.61963654,127.0445328,Y,2017-11-01 16:00,20
ST-1109,1535. 효성인텔리안 앞,34,강북구,1073,서울특별시 수유동 230-7,효성인텔리안 앞,37.6362915,127.0233765,Y,2017-11-01 16:00,10
ST-111,513. 뚝섬역 5번 출구 정류소 옆,14,성동구,4778,서울특별시 성동구 아차산로 18,뚝섬역 5번 출구 정류소 옆,37.54630661,127.0498047,Y,2015-10-07 11:57,13
ST-1110,1536. 번동 두산위브 101동 옆,34,강북구,1067,서울특별시 번동 386-17,번동 두산위브 101동 옆,37.63626099,127.0321732,Y,2017-11-01 16:00,20
ST-1111,1643. 태릉입구역 8번출구,26,노원구,1861,서울특별시 노원구 공릉동 687-6,태릉입구역 8번출구,37.61736679,127.0752106,Y,2017-11-01 16:00,10
ST-1112,1644. 경춘선 숲길공원(현대성우아파트 앞),26,노원구,1834,서울특별시 노원구 공릉동 425-9,경춘선 숲길공원(현대성우아파트 앞),0,0,N,2017-11-01 16:00,5
ST-1114,1646. 삼육대 입구,26,노원구,1795,서울특별시 노원구 공릉동 26-43,삼육대 입구,37.63848877,127.1079025,Y,2017-11-01 16:00,20
ST-1115,1647. 공릉동 두산힐스빌아파트 옆,26,노원구,1825,서울특별시 노원구 공릉동 320-2,공릉동 두산힐스빌아파트 옆,0,0,N,2017-11-01 16:00,0
ST-1116,1648. 구도일 주유소,26,노원구,1710,서울특별시 노원구 중계동 391,구도일 주유소,0,0,N,2017-11-01 16:00,3
ST-1117,1649. 서울시립 북서울 미술관 앞,26,노원구,1760,서울특별시 노원구 중계동 503-3,서울시립 북서울 미술관 앞,0,0,N,2017-11-01 16:00,10
ST-1118,1650. 중계근린공원내,26,노원구,1779,서울특별시 노원구 중계동 506-3,중계근린공원내,37.63957977,127.0651016,Y,2017-11-01 16:00,20
ST-1119,1651. 맥도날드 상계점 앞,26,노원구,1630,서울특별시 노원구 상계동 1118-9,맥도날드 상계점 앞,37.67237473,127.0559921,Y,2017-11-01 16:00,20
ST-112,514. 성수사거리 버스정류장 앞,14,성동구,4798,서울특별시 성동구 아차산로 171,성수사거리 버스정류장 앞,37.54257965,127.0633087,Y,2015-10-07 11:58,7
ST-1120,1652. 파르코 앞,26,노원구,1624,서울특별시 노원구 상계동 1263,파르코 앞,37.68000031,127.0555801,Y,2017-11-01 16:00,10
ST-1121,1653. 노원역1번출구,26,노원구,1693,서울특별시 노원구 상계동 335-4,노원역1번출구,37.65620041,127.0636215,Y,2017-11-01 16:00,10
ST-1122,1654. 당고개입구 오거리,26,노원구,1661,서울특별시 노원구 상계동 172-2,보훈회관 대여소,37.66379166,127.0754471,T,2017-11-01 16:00,15
ST-1123,1655. 공릉1단지아파트,26,노원구,1851,서울특별시 동일로 1127,공릉1단지아파트,37.63111115,127.0701599,Y,2017-11-01 16:00,15
ST-1124,1656. 중앙하이츠 아파트 입구,26,노원구,1703,서울특별시 노원구 노원로 434 상계2차중앙하이츠아파트,,37.65501785,127.0675049,Y,2017-11-01 16:00,10
ST-1125,1657. 노원구청 ,26,노원구,1689,서울특별시 노원구 노해로 437 ,노원구청 ,37.65404892,127.0573273,Y,2017-11-01 16:00,20
ST-1126,1658. 마들역 3번 출구,26,노원구,1674,서울특별시 노원구 동일로 1532,마들역 3번 출구,0,0,N,2017-11-01 16:00,3
ST-1127,1659. 중계동 을지중학교,26,노원구,1741,서울특별시 노원구 중계동 370,중계동 을지중학교,37.65032959,127.0716019,Y,2017-11-01 16:00,10
ST-1128,1660. 서울시립과학관,26,노원구,1748,서울특별시 노원구 하계동 266,서울시립과학관,37.64207077,127.076622,Y,2017-11-01 16:00,8
ST-1129,1713. 쌍문동 청소년 랜드,27,도봉구,1450,서울특별시  도봉구 노해로140,쌍문동 청소년 랜드,37.64726639,127.0258789,Y,2017-11-01 16:00,10
ST-113,515. 광양중학교 앞,15,광진구,5104,서울특별시 광진구 자양로3길 7,광양중학교 앞,37.53023529,127.0868301,Y,2015-10-07 11:59,10
ST-1130,1714. 도봉문화정보도서관 삼거리,27,도봉구,1485,서울특별시 도봉구 덕릉로 315,도봉문화정보도서관 삼거리,37.64463043,127.0446091,Y,2017-11-01 16:00,10
ST-1131,1715. 서울특별시교육청도봉도서관,27,도봉구,1368,서울특별시 도봉구 삼양로556,서울특별시교육청도봉도서관,37.65317917,127.0127869,Y,2017-11-01 16:00,20
ST-1132,1716. 하나로마트 창동점,27,도봉구,1413,서울특별시 도봉구 마들로11길 20,하나로마트 창동점,37.65420151,127.0507278,Y,2017-11-01 16:00,10
ST-1133,1717. 시립창동운동장 입구,27,도봉구,1412,서울특별시 도봉구 창동 1-24,시립창동운동장 입구,37.65570831,127.0501022,Y,2017-11-01 16:00,15
ST-1134,1718. 방학극동아파트 단지내,27,도봉구,1316,서울특별시 도봉구 시루봉로 11길 25-8,방학극동아파트 단지내,0,0,N,2017-11-01 16:00,1
ST-1135,1719. 신도봉사거리 버스정류장,27,도봉구,1309,서울특별시  도봉구 도봉로 771,신도봉사거리 버스정류장,37.67328262,127.0439911,Y,2017-11-01 16:00,10
ST-1136,1720. 도봉구청 옆(중랑천변),27,도봉구,1331,서울특별시 도봉구 마들로 656,도봉구청 옆(중랑천변),37.66867065,127.0479813,Y,2017-11-01 16:00,27
ST-1137,1721. 창동역 2번출구 ,27,도봉구,1405,서울특별시 창동 74-2 ,창동역 2번출구 ,37.65301514,127.0469971,Y,2017-11-01 16:00,12
ST-1138,1837. 가산디지털단지역 7번출구,28,금천구,8502,서울특별시 가산동 464-2,가산디지털단지역 7번출구,0,0,N,2017-11-01 16:00,0
ST-1139,1838. 국도화학 앞,28,금천구,8588,서울특별시 가산동 371-27,국도화학 앞,0,0,N,2017-11-01 16:00,0
ST-114,516. 광진메디칼 앞,15,광진구,5003,서울특별시 광진구 광나루로 355,광진메디컬앞,37.54840469,127.0693665,Y,2015-10-07 11:59,10
ST-1140,1839. 수출의 다리 아래,28,금천구,8507,서울특별시 가산동 60-35,수출의 다리 아래,37.47705841,126.8851852,Y,2017-11-01 16:00,20
ST-1141,1840. 솔브레인이엔지 뒤편,28,금천구,8517,서울특별시 가산동 219-18,솔브레인이엔지 뒤편,37.47510147,126.8880692,Y,2017-11-01 16:00,20
ST-1142,1841. 가산동 주민센터,28,금천구,8516,서울특별시 가산동 144-3,가산동 주민센터,37.4769516,126.8918686,Y,2017-11-01 16:00,10
ST-1143,1842. 한울중학교,28,금천구,8566,서울특별시 시흥동 1000-3,한울중학교,37.46257401,126.9068604,Y,2017-11-01 16:00,15
ST-1144,1843. 독산고등학교,28,금천구,8551,서울특별시 독산동 906-42,독산고등학교,37.47709656,126.9111328,Y,2017-11-01 16:00,10
ST-1145,1844. 시흥사거리,28,금천구,8626,서울특별시 금천구 시흥대로236,시흥사거리,0,0,N,2017-11-01 16:00,0
ST-1146,1845. 롯데캐슬골드파크1차 서문,28,금천구,8608,서울특별시 금천구 벚꽃로40 ,롯데캐슬골드파크1차 서문,37.460289,126.892189,Y,2017-11-01 16:00,15
ST-1147,1846. 롯데캐슬골드파크1차 동문,28,금천구,8608,서울특별시 금천구 독산동 441-19 ,롯데캐슬골드파크1차 동문,37.46017075,126.8960419,Y,2017-11-01 16:00,15
ST-1148,1847. 독산주공 14단지 버스정류소,28,금천구,14238,서울특별시 금천구 안양천로,독산주공 14단지 버스정류소,37.46103287,126.8871002,Y,2017-11-01 16:00,10
ST-1149,1848. 벽산 디지털밸리 5차,28,금천구,8513,서울특별시 금천구 가산동 60-73 ,벽산 디지털밸리 5차,37.4762764,126.8853912,Y,2017-11-01 16:00,10
ST-115,517. 센추리프라자 앞(미설치),14,성동구,4798,서울특별시 성동구 성수이로24길 38,센추리프라자,37.54400635,127.0621491,N,2015-10-07 12:00,5
ST-1150,2058. 노량진동 맥도널드앞,30,동작구,6922,서울특별시 동작구 노량진동 113-7 ,노량진동 맥도널드앞,37.5135231,126.9435272,Y,2017-11-01 16:00,10
ST-1151,2059. 보라매공원 정문,30,동작구,7062,서울특별시 동작구 신대방동 395 ,보라매공원 정문,37.49707794,126.9177933,Y,2017-11-01 16:00,10
ST-1152,2060. 남성역3번출구 뒤,30,동작구,7004,서울특별시 동작구 사당동 1131 ,남성역3번출구 뒤,37.48463058,126.97155,Y,2017-11-01 16:00,10
ST-1153,2061. 한강 현대아파트 건너편,30,동작구,6904,서울특별시 동작구 흑석동 27-83 ,한강 현대아파트 건너편,37.50592804,126.9692307,Y,2017-11-01 16:00,10
ST-1154,2062. 사당새마을금고,30,동작구,7003,서울특별시 사당동 211-2 ,사당새마을금고,37.48665237,126.9678421,Y,2017-11-01 16:00,10
ST-1155,2158. 중앙동 관악위버폴리스,31,관악구,8745,서울특별시 관악구 봉천동 859-9 ,중앙동 관악위버폴리스,0,0,N,2017-11-01 16:00,1
ST-1156,2159. 인헌초교,31,관악구,8792,서울특별시 관악구 봉천동 244-1 ,인헌초교,37.47509003,126.9592285,Y,2017-11-01 16:00,10
ST-1157,2160. 관악구 보건소,31,관악구,8832,서울특별시 관악로 145,관악구 보건소,37.47862625,126.951294,Y,2017-11-01 16:00,15
ST-1158,2266. 서초역 3번출구,32,서초구,6655,서울특별시 서초동 1748-14,서초역 3번출구,37.49053955,127.0081635,Y,2017-11-01 16:00,15
ST-1159,2267. 반포역1번-2번 출구 사이,32,서초구,6544,서울특별시 반포동 20-44,반포역1번-2번 출구 사이,0,0,N,2017-11-01 16:00,15
ST-116,300. 정동사거리,11,중구,4516,서울특별시 중구 정동길 2-1,정동사거리,37.56805038,126.9692307,Y,2015-10-07 12:03,7
ST-1160,2268. 서초4동주민센터 ,32,서초구,6611,서울특별시 서초동 1389,서초4동주민센터 ,37.50231934,127.0222702,Y,2017-11-01 16:00,10
ST-1161,2269. 주홍교 하부,32,서초구,6529,서울특별시 잠원동 91-29,주홍교 하부,37.51034927,127.0160523,Y,2017-11-01 16:00,10
ST-1162,2270. 서초포레스타 7단지,32,서초구,6802,서울특별시 신원동 266,서초포레스타 7단지,37.44896698,127.0577393,Y,2017-11-01 16:00,10
ST-1163,2271. 내방역 8번출구 앞,32,서초구,6588,서울특별시 서초구 방배로 162,내방역 8번출구 앞,37.48786545,126.9942932,Y,2017-11-01 16:00,8
ST-1164,2272. 교대입구 교차로,32,서초구,6649,서울특별시 서초동 1748-33,교대입구 교차로,37.4873085,127.010582,Y,2017-11-01 16:00,10
ST-1165,2273. 일동제약 사거리,32,서초구,6752,서울특별시 양재동 67-12,일동제약 사거리,37.47782898,127.038269,Y,2017-11-01 16:00,10
ST-1166,2274. 양재시민의숲역 3번출구,32,서초구,6779,서울특별시 양재동 316-11,양재시민의숲역 3번출구,37.46965027,127.0396118,Y,2017-11-01 16:00,10
ST-1167,2275. 염곡치안센터 건너편,32,서초구,6793,서울특별시 염곡동 260-1,염곡치안센터 건너편,37.46157837,127.0487976,Y,2017-11-01 16:00,10
ST-1168,2276. 영동1교 (양재천근린공원),32,서초구,6776,서울특별시 양재동 261-23,영동1교 (양재천근린공원),37.47438812,127.0389023,Y,2017-11-01 16:00,15
ST-1169,2277. 길마중4교 하부,32,서초구,6515,서울특별시 잠원동 84-3,길마중4교 하부,37.51486969,127.0152817,Y,2017-11-01 16:00,10
ST-117,301. 경복궁역 7번출구 앞,10,종로구,3170,서울특별시 종로구 사직로 지하130,경복궁역 7번출구 앞,37.57579422,126.9714508,Y,2015-10-07 12:03,16
ST-1170,2361. 압구정역 교차로,33,강남구,6030,서울특별시 강남구 신사동 580-7,압구정역 교차로,37.52684402,127.0282593,Y,2017-11-01 16:00,10
ST-1171,2362. 신사동 가로수길 입구,33,강남구,6035,서울특별시 강남구 신사동 501-5,신사동 가로수길 입구,37.51763535,127.0224533,Y,2017-11-01 16:00,10
ST-1172,2363. 강남 을지병원 교차로,33,강남구,6040,서울특별시 강남구 도산대로 172,,37.51913834,127.0275192,Y,2017-11-01 16:00,15
ST-1173,2364. 도산대로 렉서스 앞,33,강남구,6026,서울특별시 강남구 도산대로 229 ,도산대로 렉서스 앞,37.52124023,127.0318985,Y,2017-11-01 16:00,10
ST-1174,2365. K+ 타워 앞,33,강남구,6019,서울특별시 강남구 도산대로 333 ,K+ 타워 앞,37.52330017,127.038475,Y,2017-11-01 16:00,15
ST-1176,2367. 신한은행 강남스포월드 지점,33,강남구,6147,서울특별시 강남구 언주로 536,신한은행 강남스포월드 지점,0,0,N,2017-11-01 16:00,2
ST-1177,2368. 도곡동 경남아파트 건너편,33,강남구,6270,서울특별시 강남구 도곡동 874-1,도곡동 경남아파트 건너편,37.48934174,127.0412979,Y,2017-11-01 16:00,10
ST-1178,2369. KT선릉타워,33,강남구,6193,서울특별시 강남구 대치동 1011,KT선릉타워,37.50542831,127.0528717,Y,2017-11-01 16:00,20
ST-1179,2370. 한티역 3번출구,33,강남구,6278,서울특별시 강남구 대치동 1026,한티역 3번출구,37.49655151,127.0542984,Y,2017-11-01 16:00,20
ST-118,302. 경복궁역 4번출구 뒤,10,종로구,3170,서울특별시 종로구 사직로 지하130,경복궁역 4번출구 뒤,37.57594681,126.9740601,Y,2015-10-07 12:04,12
ST-1180,2371. 한국우편사업진흥원,33,강남구,6104,서울특별시 강남구 언주로 651,한국우편사업진흥원,37.51474762,127.0351334,Y,2017-11-01 16:00,10
ST-1181,2372. 대치역 사거리,33,강남구,6288,서울특별시 강남구 삼성로 156 ,대치역 사거리,37.49449921,127.063797,Y,2017-11-01 16:00,10
ST-1182,2373. 개포동역 사거리,33,강남구,6323,서울특별시 강남구 개포동 181-3,개포동역 사거리,37.48927689,127.0655747,Y,2017-11-01 16:00,20
ST-1184,2375. 수서역 1번출구 앞,33,강남구,6362,서울특별시 강남구 수서동 728,수서역 1번출구 앞,37.48735046,127.1009979,Y,2017-11-01 16:00,10
ST-1185,2376. 수서역 6번출구 앞,33,강남구,6362,서울특별시 강남구 수서동 740,수서역 6번출구 앞,37.48677826,127.1005173,Y,2017-11-01 16:00,20
ST-1186,2377. 수서역 5번출구 뒤,33,강남구,6367,서울특별시 강남구 수서동 724-4,수서역 5번출구 뒤,37.48683548,127.1027527,Y,2017-11-01 16:00,10
ST-1187,2378. 개포디지털혁신파크,33,강남구,6324,서울특별시 강남구 개포동 153,개포디지털혁신파크,0,0,N,2017-11-01 16:00,0
ST-1188,3100. 북성초교,13,서대문구,3774,서울특별시 서대문구 신촌로 235-1,북성초교,37.55739594,126.9521637,Y,2017-11-01 16:00,8
ST-1189,3101. 서대문구청,13,서대문구,3718,서울특별시 서대문구 연희로 242,서대문구청,37.57838058,126.9360962,Y,2017-11-01 16:00,15
ST-119,303. 광화문역 1번출구 앞,10,종로구,3172,서울특별시 종로구 세종대로 지하189,세종로공원,37.57176971,126.9746628,Y,2015-10-07 12:05,8
ST-1190,3102. 연희삼거리,13,서대문구,3708,서울특별시 서대문구 연희로 113,연희삼거리,37.56796646,126.9317246,Y,2017-11-01 16:00,10
ST-1191,3506. 영동대교 북단,15,광진구,5088,서울특별시 광진구 자양동 203-22,영동대교 북단,37.53701401,127.0610962,Y,2017-11-01 16:00,10
ST-1192,3507. 어린이회관,15,광진구,4991,서울특별시 광진구 능동 465-7,어린이회관,37.54595184,127.0780029,Y,2017-11-01 16:00,39
ST-1193,3508. 화양사거리,15,광진구,5007,서울특별시 광진구 화양동 21-6,화양사거리,37.54822159,127.0678787,Y,2017-11-01 16:00,10
ST-1194,3509. 세종사이버대학교,15,광진구,5000,서울특별시 광진구 군자동 111-2,세종사이버대학교,37.55341721,127.0731964,Y,2017-11-01 16:00,20
ST-1195,3511. 응봉역 1번출구,14,성동구,4742,서울특별시 성동구 고산자로 123,응봉동 3-10,37.55125046,127.0351028,Y,2017-11-01 16:00,10
ST-1197,3513. 상왕십리역 1번출구,14,성동구,4701,서울특별시 성동구 하왕십리동 860-1 ,상왕십리역 1번출구,37.56460953,127.0291977,Y,2017-11-01 16:00,10
ST-1198,3514. 왕십리교회옆,14,성동구,4701,서울특별시 성동구 상왕십리동 350-1 ,왕십리교회옆,37.56626129,127.0236969,Y,2017-11-01 16:00,10
ST-1199,3515. 서울숲 관리사무소,14,성동구,4771,서울특별시 성동구 성수동1가 678-1,서울숲 관리사무소,37.54281616,127.0420837,Y,2017-11-01 16:00,20
ST-12,115. 사루비아 빌딩 앞,13,서대문구,3784,서울특별시 서대문구 연희로 6,516,37.55893326,126.9271164,Y,2015-09-07 1:28,15
ST-120,304. 광화문역 2번출구 앞,10,종로구,3154,서울특별시 종로구 세종대로 지하172,광화문역 2번출구 앞,37.57211304,126.9775772,Y,2015-10-07 12:05,7
ST-1200,1336. 성북3교 위,24,성북구,2847,서울특별시 성북구 보문로 192,성북3교 위,37.59125137,127.0140076,Y,2017-11-13 9:14,20
ST-1201,1337. 돈암성당 옆,24,성북구,2849,서울특별시 성북구 인촌로7길 120,돈암성당 옆,37.59038162,127.0171356,Y,2017-11-13 9:18,10
ST-1202,1338. 용문2교 옆,24,성북구,2850,서울특별시 성북구 인촌로7길 24,용문2교 옆,37.5868988,127.020752,Y,2017-11-13 9:19,15
ST-1203,1339. 삼성전자서비스 성북센터,24,성북구,2737,서울특별시 성북구 월계로 28,삼성전자서비스 성북센터,37.610569,127.0335083,Y,2017-11-13 9:20,9
ST-1204,1340. 광운초등학교 앞,24,성북구,2763,서울특별시 성북구 장위동 134-27,,37.61784363,127.0550003,Y,2017-11-13 9:21,11
ST-1205,1341. 석계역5번출구 앞,24,성북구,1895,서울특별시 노원구 화랑로 341,석계역5번출구 앞,0,0,N,2017-11-13 9:22,1
ST-1206,1342. 성북쉼터 앞,24,성북구,2879,서울특별시 성북구 성북로21길 32,성북쉼터 앞,37.59261703,126.9979324,Y,2017-11-13 9:23,15
ST-1207,1343. 한성대7번출구 앞,24,성북구,2833,서울특별시 성북구 동소문로 11,한성대7번출구 앞,37.58924866,127.0073776,Y,2017-11-13 9:24,10
ST-1208,1344. 아리랑시네센터 앞,24,성북구,2827,서울특별시 성북구 아리랑로 82,아리랑시네센터 앞,37.60028839,127.0137024,Y,2017-11-13 9:24,10
ST-1209,1345. 고명중학교 앞,24,성북구,2828,서울특별시 성북구 북악산로 870,고명중학교 앞,0,0,N,2017-11-13 9:25,5
ST-121,305. 종로구청 옆,10,종로구,3153,서울특별시 종로구 삼봉로 43,종로구청 옆,37.57258224,126.9783554,Y,2015-10-07 12:06,16
ST-1210,1346. 길음8골어린이공원 옆,24,성북구,2715,서울특별시 성북구 길음로13길 22,길음8골어린이공원 옆,37.60897827,127.0202484,Y,2017-11-13 9:26,15
ST-1211,1347. 길음래미안아파트817동 상가 앞,24,성북구,2720,서울특별시 성북구 길음로 33,길음래미안아파트817동 상가 앞,37.60710526,127.0214996,Y,2017-11-13 9:27,20
ST-1212,1348. 성북제일새마을금고 본점 앞,24,성북구,2725,서울특별시 성북구 길음로 20,성북제일새마을금고 본점 앞,37.60475159,127.0227585,Y,2017-11-13 9:27,12
ST-1213,1349. 월계2교 버스정류장 앞,24,성북구,2759,서울특별시 성북구 한천로101길 18,월계2교 버스정유장 앞,37.62382889,127.0502014,Y,2017-11-13 9:28,10
ST-1214,1350. 양광빌딩 앞,24,성북구,2721,서울특별시 성북구 동소문로 225,양광빌딩 앞,0,0,N,2017-11-13 9:29,1
ST-1215,1351. 안암2교 옆,24,성북구,2857,서울특별시 성북구 안암로 17,SK제삼주유소 앞,37.5794487,127.0241928,Y,2017-11-13 9:30,8
ST-1216,1352. e 편한세상 보문아파트 내,24,성북구,2874,서울특별시 성북구 낙산길 255,e 편한세상 보문아파트 내,37.58388138,127.0170975,Y,2017-11-13 9:31,8
ST-1217,1353. 금호어울림센터힐 내,24,성북구,2807,서울특별시 성북구 동소문로34길 73,금호어울림센터힐 내,37.60083008,127.0235519,Y,2017-11-13 9:31,8
ST-1218,1956. 도야미리숯불갈비 앞,29,구로구,8203,서울특별시 구로구 신도림로 67,도야미리숯불갈비 앞,37.51000977,126.8820496,Y,2017-11-13 9:33,10
ST-1219,1957. 구일고등학교 정문 ,29,구로구,8324,서울특별시 구로구 구일로 90-51,구일고등학교 정문,37.49340057,126.8743286,Y,2017-11-13 9:34,15
ST-122,306. 광화문역 7번출구 앞,10,종로구,3154,서울특별시 종로구 세종대로 지하172,광화문역 7번출구 앞,37.57080841,126.9764328,Y,2015-10-07 12:07,19
ST-1220,1958. 강서수도사업소민원센터,29,구로구,8302,서울특별시 구로구 가마산로 272,강서수도사업소민원센터,37.49578094,126.8901215,Y,2017-11-13 9:34,10
ST-1221,1959. 구로구의회 앞,29,구로구,8301,서울특별시 구로구 가마산로25길 9-24,구로구의회 앞,37.49645615,126.8895874,Y,2017-11-13 9:35,10
ST-1222,1960. 화광신문사 앞,29,구로구,8289,서울특별시 구로구 공원로 68,화광신문사 앞,37.50284958,126.8894806,Y,2017-11-13 9:36,10
ST-1223,1961. 신도림테크노근린공원,29,구로구,8288,서울특별시 구로구 새말로 121-15,신도림테크노근린공원,37.50819397,126.891304,Y,2017-11-13 9:37,15
ST-1224,1962. 가리봉동주민센터,29,구로구,8389,서울특별시 구로구 디지털로26길 5,가리봉동주민센터,37.48160172,126.8927994,Y,2017-11-13 9:38,15
ST-1225,1963. 디지털단지오거리,29,구로구,8515,서울특별시 금천구 가산로 157,디지털단지오거리,37.47931671,126.8901215,C,2017-11-13 9:39,10
ST-1226,1964. 원메디타운 앞,29,구로구,8227,서울특별시 구로구 경인로 403,원메디타운 앞,37.49789047,126.864502,Y,2017-11-13 9:39,10
ST-1227,1965. 삼환로즈빌아파트 105동 옆,29,구로구,8226,서울특별시 구로구 경인로 343,삼환로즈빌아파트 105동 옆,37.49723053,126.8591919,Y,2017-11-13 9:41,15
ST-1228,1966. 한마을아파트 정문상가,29,구로구,8275,서울특별시 구로구 경인로 382,한마을아파트 정문상가,37.49649811,126.8630981,Y,2017-11-13 9:44,10
ST-1229,1967. 참새공원(백곡경노당),29,구로구,8250,서울특별시 구로구 고척로21길 85,참새공원(백곡경노당),37.5051384,126.8443375,Y,2017-11-13 9:45,10
ST-123,307. 서울역사박물관 앞,10,종로구,3177,서울특별시 종로구 새문안로 55,서울역사박물관 앞,37.56999969,126.9710999,Y,2015-10-07 12:09,11
ST-1230,1968. 동인오피스텔 건너편 소공원,29,구로구,8266,서울특별시 구로구 고척로22길 64,동인오피스텔 건너편 소공원,37.49848175,126.8475037,Y,2017-11-13 9:46,12
ST-1231,1969. 궁동생태공원,29,구로구,8249,서울특별시 구로구 오리로 1352,궁동생태공원,37.50190353,126.8289642,Y,2017-11-13 9:47,10
ST-1232,1970. 온수역 남측,29,구로구,8264,서울특별시 구로구 부일로 872,온수역 남측,0,0,N,2017-11-13 9:48,0
ST-1233,1971. 오정초교 앞 보도육교,29,구로구,8359,서울특별시 구로구 경인로2길 10,오청초교 앞 보도육교,37.49072266,126.8263931,Y,2017-11-13 9:49,10
ST-1234,1972. 고척1동 주민센터 인근,29,구로구,8225,서울특별시 구로구 중앙로3길 18-8,고척1동 주민센터 인근,0,0,N,2017-11-13 9:50,1
ST-1235,1973. 오리로와 서해안도로 교차로 앞,29,구로구,8363,서울특별시 구로구 오리로 1181,오리로와 서해안도로 교차로 앞,37.48859787,126.8364945,Y,2017-11-13 9:51,10
ST-1236,1974. 신도림2차e편한세상아파트 203동 앞,29,구로구,8211,서울특별시 구로구 신도림로 16,신도림2차e편한세상아파트 203동 앞,37.50518036,126.8825378,Y,2017-11-13 9:52,10
ST-1237,1975. 대림역 1번 출입구 밑,29,구로구,8304,서울특별시 구로구 도림천로 351,대림역 1번 출입구 밑,37.49256516,126.8947525,Y,2017-11-13 9:53,10
ST-1238,1976. 남구로역 5번 출입구 앞,29,구로구,8320,서울특별시 구로구 도림로 지하 7,남구로역 5번 출입구 앞,37.48567963,126.8867035,Y,2017-11-13 9:54,10
ST-1239,1977. 천왕역 1번 출입구 앞,29,구로구,8342,서울특별시 구로구 오리로 지하 1154,천왕역 1번 출입구 앞,37.48620987,126.8388214,Y,2017-11-13 9:56,15
ST-124,308. 광화문 S타워 앞,10,종로구,3185,서울특별시 종로구 새문안로 82,광화문S타워 앞,37.56996918,126.973938,Y,2015-10-07 12:09,20
ST-1240,1978. 구일역 1번 출입구 앞,29,구로구,8323,서울특별시 구로구 구일로 133,구일역 1번 출입구 앞,0,0,N,2017-11-13 9:56,20
ST-1241,1979. 구로1동우체국 앞,29,구로구,8324,서울특별시 구로구 구일로 64,구로1동우체국 앞,37.4920311,126.8737717,Y,2017-11-13 9:57,10
ST-1242,1980. 구로1동주민센터 앞,29,구로구,8324,서울특별시 구로구 구일로4길 57,구로1동주민센터 앞,0,0,N,2017-11-13 9:57,2
ST-1243,1981. 천왕이펜하우스5단지 앞,29,구로구,8365,서울특별시 구로구 천왕로 10,천왕이펜하우스5단지 앞,37.47943115,126.8426971,Y,2017-11-13 9:58,10
ST-1244,2379. 선정릉역 2번출구뒤,33,강남구,6097,서울특별시 강남구 선릉로 602,선정릉역 2번출구 뒤,0,0,N,2017-11-28 9:36,2
ST-1245,2380. 삼성동베이직하우스앞,33,강남구,6153,서울특별시 강남구 봉은사로 456,삼성동베이직하우스앞,37.51169586,127.0493469,Y,2017-11-28 9:37,15
ST-1246,2381. 언주역 6번출구앞,33,강남구,6135,서울특별시 강남구 논현로 566,언주역 6번출구앞,37.50636673,127.034523,Y,2017-11-28 9:38,8
ST-1247,2382. 역삼동 sk뷰 501동앞,33,강남구,6213,서울특별시 강남구 역삼로 315-1,역삼동 sk뷰 501동 앞,37.50134277,127.0504684,Y,2017-11-28 9:39,11
ST-1248,2383. 보금자리정원,33,강남구,6376,서울특별시 강남구 헌릉로569길 39-6,보금자리정원,37.46632767,127.0948868,Y,2017-11-28 9:40,10
ST-1249,1158. 가양역 8번출구,22,강서구,7526,서울특별시 강서구 양천로 지하 485,가양역 8번출구,37.56103516,126.8548126,Y,2017-11-28 10:12,20
ST-125,309. 광화문역 6번출구 옆,10,종로구,3154,서울특별시 종로구 세종대로 지하172,광화문역 6번출구 옆,37.56988907,126.9764557,Y,2015-10-07 12:10,13
ST-1250,1159. 서서울모터리움앞,22,강서구,7528,서울특별시 강서구 양천로53길 30,서서울모터리움앞,37.56585312,126.8465958,Y,2017-11-28 10:12,20
ST-1251,1160. 양천향교역 7번출구앞,22,강서구,7523,서울특별시 강서구 양천로 지하 341,양천향교역 7번출구 앞,37.56768036,126.8408966,Y,2017-11-28 10:13,20
ST-1252,1161. 강서면허시험장앞,22,강서구,7644,서울특별시 강서구 남부순환로 171,강서면허시험장앞,37.54969406,126.819664,Y,2017-11-28 10:14,10
ST-1253,1162. 공항초등학교건너편,22,강서구,7798,서울특별시 강서구 마곡서1로 68,공항초등학교건너편,37.56267929,126.8204727,Y,2017-11-28 10:15,10
ST-1254,1163. 방화동강서기동대앞,22,강서구,7597,서울특별시 강서구 방화대로34길 65,방화동 강서기동대앞,37.57049942,126.8200836,Y,2017-11-28 10:16,10
ST-1255,1164. 기쁜우리복지관,22,강서구,7524,서울특별시 강서구 허준로 65,기쁜우리복지관,0,0,N,2017-11-28 10:17,0
ST-1256,2161. 신대방역 2번출구,31,관악구,7067,서울특별시 동작구 대림로 2,신대방역 2번출구,0,0,N,2017-11-28 10:17,30
ST-1257,2162. 홈플러스남현점,31,관악구,8808,서울특별시 관악구 과천대로 909,홈플러스남현점,0,0,N,2017-11-28 10:18,15
ST-1258,2163. 봉천역 4번출구,31,관악구,8757,서울특별시 관악구 남부순환로 1719,봉천역 4번출구,0,0,N,2017-11-28 10:19,5
ST-1259,2164. 관악우체국,31,관악구,8755,서울특별시 관악구 남부순환로 1641,관악우체국,37.48476791,126.9328766,Y,2017-11-28 10:19,8
ST-126,310. 청계광장 옆,11,중구,4520,서울특별시 중구 세종대로 136,청계광장 옆,37.56887817,126.9774704,Y,2015-10-07 12:11,13
ST-1260,2165. JK장평타워,31,관악구,8801,서울특별시 관악구 남부순환로 1943,JK장평타워,37.47648239,126.9653626,Y,2017-11-28 10:20,10
ST-1261,2166. 낙성대역 5번출구,31,관악구,8742,서울특별시 관악구 남부순환로 1917,낙성대역 5번출구,0,0,N,2017-11-28 10:21,15
ST-1262,2167. 낙성대역 1번출구,31,관악구,8793,서울특별시 관악구 남부순환로 1944,낙성대역 1번출구,37.47629547,126.9649582,Y,2017-11-28 10:22,12
ST-1263,3518. 군자역 7번출구뒤,15,광진구,4997,서울특별시 광진구 천호대로 지하 550,군자역 7번출구 뒤,37.55686188,127.0791397,Y,2017-11-28 10:22,8
ST-1264,2169. 봉천역 2번출구,31,관악구,8784,서울특별시 관악구 남부순환로 1728,봉천역 2번출구,37.48218918,126.942131,Y,2017-11-28 10:23,7
ST-1265,2170. 조원동서울본병원,31,관악구,8767,서울특별시 관악구 남부순환로 1451,조원동서울본병원,37.48152924,126.9120331,Y,2017-11-28 10:24,10
ST-1266,3517. 용마사거리,15,광진구,4909,서울특별시 광진구 능동로 373,용마사거리,37.5625267,127.0822754,Y,2017-11-28 10:24,10
ST-1267,2172. 나들목공원,31,관악구,8815,서울특별시 관악구 신림로 41,나들목공원,37.46940613,126.9445114,Y,2017-11-28 10:25,20
ST-1268,2173. 당곡사거리,31,관악구,8708,서울특별시 관악구 보라매로 3,당곡사거리,37.48974991,126.9274674,Y,2017-11-28 10:25,10
ST-1269,2174. 삼성디지털프라자관악점,31,관악구,8753,서울특별시 관악구 신림로 386,삼성디지털프라자관악점,37.48856354,126.9284821,Y,2017-11-28 10:26,10
ST-127,311. 서울광장 옆,11,중구,4519,서울특별시 중구 세종대로 지하 101,서울시청 앞,37.56661224,126.9774704,Y,2015-10-07 12:11,35
ST-1270,2175. 신림동걷고싶은문화의거리입구,31,관악구,8760,서울특별시 관악구 신림로 369,신림동걷고싶은문화의거리입구,37.48730087,126.9287033,Y,2017-11-28 10:27,10
ST-1271,3516. 구의아리수정수센터앞,15,광진구,4981,서울특별시 광진구 광나루로 571,구의아리수정수센터앞,37.54370499,127.0932465,Y,2017-11-28 10:35,10
ST-1272,1982. 구로역 1번출구,29,구로구,8213,서울특별시 구로구 구로중앙로 174,구로역 1번출구,0,0,N,2017-11-28 10:40,0
ST-1273,1983. 구로동롯데아파트,29,구로구,8291,서울특별시 구로구 새말로 31,구로동롯데아파트,37.50254822,126.8838806,Y,2017-11-28 10:40,10
ST-1274,1984. 구로구청,29,구로구,8284,서울특별시 구로구 가마산로 245,구로구청,37.49526596,126.8884735,Y,2017-11-28 10:41,10
ST-1275,1985. 구로도서관,29,구로구,8298,서울특별시 구로구 공원로 15,구로도서관,37.49851608,126.8919907,Y,2017-11-28 10:42,20
ST-1276,1849. 대륭포스트타워5차,28,금천구,8512,서울특별시 금천구 디지털로9길 68,대륭포스트타워5차,37.48135376,126.88694,Y,2017-11-28 10:43,10
ST-1277,1850. 코오롱테크노밸리,28,금천구,8512,서울특별시 금천구 디지털로9길 56,코오롱테크노밸리,37.48015976,126.8863678,Y,2017-11-28 10:44,10
ST-1278,1661. 당현천근린공원,26,노원구,1757,서울특별시 노원구 동일로 1342,당현천근린공원,37.64963913,127.0656052,Y,2017-11-28 10:45,10
ST-1279,1662. 노원역7번출구,26,노원구,1689,서울특별시 노원구 노해로 467,노원역 7번출구,37.65411377,127.0591507,Y,2017-11-28 10:46,15
ST-128,312. 시청역 1번출구 뒤,11,중구,4519,서울특별시 중구 세종대로 지하101,1번출구 뒤,37.56467438,126.976738,Y,2015-10-07 12:12,7
ST-1280,1663. 동해문화예술관앞,26,노원구,1861,서울특별시 노원구 화랑로 429,동해문화예술관앞,37.61938095,127.0578537,Y,2017-11-28 10:47,20
ST-1281,1664. 노해근린공원내,26,노원구,1741,서울특별시 노원구 노원로22길 1,노해근린공원내,37.64936066,127.0704422,Y,2017-11-28 10:47,10
ST-1282,1665. 양지근린공원앞,26,노원구,1743,서울특별시 노원구 한글비석로 227,양지근린공원앞,37.64733505,127.0764237,Y,2017-11-28 10:48,10
ST-1283,1666. 노원소방서인근,26,노원구,1702,서울특별시 노원구 노원로26길 111,노원소방서인근,37.65578079,127.0717773,Y,2017-11-28 10:49,10
ST-1284,1667. 중계중학교,26,노원구,1712,서울특별시 노원구 덕릉로76길 23,중계중학교,37.65449905,127.0743866,Y,2017-11-28 11:18,10
ST-1285,1668. 중계역 6번출구,26,노원구,1760,서울특별시 노원구 동일로 지하 1308-1,중계역 6번출구,37.64550781,127.0632553,Y,2017-11-28 11:19,10
ST-1286,1669. 중계역 3번출구,26,노원구,1760,서울특별시 노원구 동일로 지하 1308-1,중계역 3번출구,37.64352798,127.0652237,Y,2017-11-28 11:20,9
ST-1287,1670. 노원경찰서교차로,26,노원구,1788,서울특별시 노원구 노원로 283,노원경찰서교차로,37.64340973,127.0718384,Y,2017-11-28 11:22,15
ST-1288,1671. 인덕대학교,26,노원구,1878,서울특별시 노원구 초안산로 12,인덕대학교,37.62934875,127.0548248,Y,2017-11-28 11:23,15
ST-1289,1672. 상계동수락리버시티,26,노원구,1601,서울특별시 노원구 누원로 18,상계동수락리버시티,37.68859863,127.0534058,Y,2017-11-28 11:24,15
ST-129,313. 서울역 광장 파출소 옆,11,중구,4509,서울특별시 중구 통일로 13,서울역 광장 파출소 옆,37.55696106,126.9717712,C,2015-10-07 12:13,5
ST-1290,1673. 노원역 5번출구,26,노원구,1751,서울특별시 노원구 동일로 1404,노원역 5번출구,37.65397644,127.0609741,Y,2017-11-28 11:25,16
ST-1291,1674. 서울북부고용센터앞,26,노원구,1762,서울특별시 노원구 노해로 450,서울북부고용센터앞,37.65354919,127.0580826,Y,2017-11-28 11:29,15
ST-1292,1722. 창동청소년수련관,27,도봉구,1412,서울특별시 도봉구 노해로69길 132,창동청소년수련관,37.65779877,127.0500488,Y,2017-11-28 11:30,15
ST-1293,1723. 방학동학마을도서관,27,도봉구,1359,서울특별시 도봉구 시루봉로 128,방학동학마을도서관,37.66207886,127.0277176,Y,2017-11-28 11:31,10
ST-1294,1724. 쌍문1동우이동교회,27,도봉구,1368,서울특별시 도봉구 삼양로 574-48,쌍문1동우이동교회,0,0,N,2017-11-28 11:32,0
ST-1295,1725. 창1동주민센터,27,도봉구,1421,서울특별시 도봉구 해등로 46,창1동주민센터,37.6475029,127.0433121,Y,2017-11-28 11:32,10
ST-1296,1726. 삼익세라믹아파트교차로,27,도봉구,1431,서울특별시 도봉구 해등로 189,삼익세라믹아파트,37.65858841,127.0352097,Y,2017-11-28 11:34,8
ST-1297,1727. 서울도봉초등학교인근,27,도봉구,1313,서울특별시 도봉구 도봉로173길 96,서울도봉초등학교인근,37.67867661,127.0407639,Y,2017-11-28 11:35,15
ST-1298,646. 장한평역 1번출구 (국민은행앞),16,동대문구,2633,서울특별시 동대문구 천호대로 405,장한평역 1번출구 (국민은행앞),37.56186676,127.0643768,Y,2017-11-28 11:35,10
ST-1299,647. 신이문역 1번출구,16,동대문구,2410,서울특별시 동대문구 신이문로 44,신이문역 1번출구,37.60279846,127.0672684,Y,2017-11-28 11:36,10
ST-13,110. 사천교,13,서대문구,3706,서울특별시 서대문구 홍제천로 11,446-92,37.56819916,126.9178467,Y,2015-09-07 1:28,20
ST-130,314. 국립현대미술관,10,종로구,3062,서울특별시 종로구 삼청로 30,국립현대미술관 서울관,37.5797081,126.9808579,Y,2015-10-07 12:13,10
ST-1300,648. 장안동위더스빌옆,16,동대문구,2631,서울특별시 동대문구 한천로 42,장안동위더스빌옆,37.56669998,127.0624237,Y,2017-11-28 11:37,15
ST-1301,649. 삼육서울병원앞,16,동대문구,2496,서울특별시 동대문구 망우로 74,삼육서울병원앞,0,0,N,2017-11-28 11:38,0
ST-1302,650. 중랑교사거리,16,동대문구,2435,서울특별시 동대문구 망우로 131,중랑교사거리,37.59153366,127.0677414,Y,2017-11-28 11:38,20
ST-1303,651. 우리은행청량리지점앞,16,동대문구,2489,서울특별시 동대문구 왕산로 239,우리은행청량리지점앞,37.58274841,127.0482788,Y,2017-11-28 11:39,10
ST-1304,2278. 서래공원앞,32,서초구,6578,서울특별시 서초구 반포대로 235,서래공원앞,0,0,N,2017-11-28 11:40,1
ST-1305,2279. 교대역 5번출구뒤,32,서초구,6634,서울특별시 서초구 서초중앙로 130,교대역 5번출구 뒤,37.49361801,127.014183,Y,2017-11-28 11:40,10
ST-1306,2280. 서울서초고용센터앞,32,서초구,6671,서울특별시 서초구 반포대로 43,서울서초고용센터 앞,37.48416138,127.0109711,Y,2017-11-28 11:41,10
ST-1307,2281. 연세사랑병원신관앞,32,서초구,6698,서울특별시 서초구 효령로 10,연세사랑병원신관 앞,37.47597885,126.9862824,Y,2017-11-28 11:43,7
ST-1308,2282. 방배래미안아트힐 101동앞,32,서초구,6714,서울특별시 서초구 남부순환로 2311-12,방배래미안아트힐 101동앞,37.47720337,127.0058365,Y,2017-11-28 11:44,15
ST-1309,2283. 그룹한빌딩옆,32,서초구,6674,서울특별시 서초구 서초대로 62,그룹한빌딩 옆,37.48652649,126.9891663,Y,2017-11-28 11:45,10
ST-131,315. 신한은행 안국역지점 옆,10,종로구,3061,서울특별시 종로구 율곡로 33,신한은행 안국역지점 옆,37.5759697,126.9830627,Y,2015-10-07 12:14,9
ST-1310,2284. CJ오쇼핑앞,32,서초구,6761,서울특별시 서초구 과천대로 870-13,CJ오쇼핑 앞,37.4681015,126.9868012,Y,2017-11-28 11:45,10
ST-1311,2285. LH서초3단지 301동 맞은편,32,서초구,6768,서울특별시 서초구 양재대로2길 33,LH서초3단지 301동 맞은편,37.45742416,127.0226517,Y,2017-11-28 11:46,15
ST-1312,2286. 탑성마을입구,32,서초구,6798,서울특별시 서초구 탑성말길 2,탑성마을입구,37.4585495,127.0558853,Y,2017-11-28 11:47,10
ST-1313,2287. 능안마을입구,32,서초구,6801,서울특별시 서초구 능안말길 1-2,능안마을입구,37.45561981,127.0671005,Y,2017-11-28 11:48,10
ST-1314,2288. 안골마을입구,32,서초구,6794,서울특별시 서초구 안골2길 3,안골마을입구,37.45560837,127.0644531,Y,2017-11-28 11:48,10
ST-1315,2289. 남태령역 2번출구,32,서초구,6761,서울특별시 서초구 과천대로 810,남태령역 2번출구,37.46429825,126.9885254,Y,2017-11-28 11:49,10
ST-1316,2290. 서래마을파리15구공원앞,32,서초구,6577,서울특별시 서초구 동광로39길 93,서래마을파리15구공원 앞,37.49941254,126.9994125,Y,2017-11-28 11:50,10
ST-1317,1354. 고려대학교 2번출구,24,성북구,2841,서울특별시 성북구 종암로 지하 1,고려대학교 2번출구,37.5907135,127.0361939,Y,2017-11-28 11:51,18
ST-1318,273. 양평동6차현대아파트,17,영등포구,7211,서울특별시 영등포구 선유로 207,양평동6차현대아파트,0,0,N,2017-11-28 11:52,0
ST-1319,274. 영등포역지하쇼핑센타 5번출구,17,영등포구,7306,서울특별시 영등포구 경인로 846,영등포역지하쇼핑센타 5번출구,37.51665115,126.9079895,Y,2017-11-28 11:52,10
ST-132,316. 종각역 1번출구 앞,10,종로구,3160,서울특별시 종로구 종로 47,종각역 1번출구 앞,37.57039642,126.9817886,Y,2015-10-07 12:15,12
ST-1320,275. 신동아아파트,17,영등포구,7279,서울특별시 영등포구 선유서로 76,신동아아파트,37.5228157,126.8856506,Y,2017-11-28 11:53,10
ST-1321,276. SK 영등포주유소,17,영등포구,7308,서울특별시 영등포구 경인로112길 1,SK영등포주유소,37.51828384,126.9126358,Y,2017-11-28 11:53,10
ST-1322,277. 영등포뉴타운지하상가 2번게이트,17,영등포구,7302,서울특별시 영등포구 영중로 22,영등포뉴타운지하상가 2번게이트,37.52011871,126.9051666,Y,2017-11-28 11:54,10
ST-1323,278. 쌍용플레티넘오피스텔,17,영등포구,7375,서울특별시 영등포구 도영로 18,쌍용플레티넘오피스텔,37.50793076,126.8952332,Y,2017-11-28 11:55,10
ST-1324,827. 국군복지단,19,용산구,4353,서울특별시 용산구 두텁바위로 54-99,국군복지단,37.54188538,126.97966,Y,2017-11-28 11:56,20
ST-1325,828. 숙대입구역 8번,19,용산구,4321,서울특별시 용산구 한강대로 289,숙대입구역 8번,37.54407883,126.9720001,Y,2017-11-28 11:57,7
ST-1326,829. 베르가모앞,19,용산구,4380,서울특별시 용산구 한강대로 23,베르가모앞,37.52293015,126.9616928,Y,2017-11-28 11:57,40
ST-1327,830. 청암자이아파트앞,19,용산구,4359,서울특별시 용산구 원효로 35,청암자이아파트앞,37.53442383,126.9485703,Y,2017-11-28 11:58,10
ST-1328,831. 이태원관광특구입구,19,용산구,4390,서울특별시 용산구 이태원로 134,이태원관광특구입구,37.53427887,126.9885635,Y,2017-11-28 11:59,15
ST-1329,954. 은평뉴타운구파발9단지,20,은평구,3301,서울특별시 은평구 진관3로 77,은평뉴타운구파발9단지,37.64260864,126.9214783,Y,2017-11-28 12:00,10
ST-133,317. 영풍빌딩 앞(미설치),10,종로구,3188,서울특별시 종로구 청계천로 41,영풍빌딩 앞,0,0,N,2015-10-07 12:15,8
ST-1330,955. 서울신도초등학교,20,은평구,3310,서울특별시 은평구 진관1로 77-23,서울신도초등학교,0,0,N,2017-11-28 12:01,3
ST-1331,956. 응암시장교차로,20,은평구,3466,서울특별시 은평구 응암로 248,응암시장교차로,37.59437561,126.9181595,Y,2017-11-28 12:01,9
ST-1332,1449. 상봉역 1번출구,25,중랑구,2098,서울특별시 중랑구 망우로 297,상봉역 1번출구,37.59655762,127.0858383,Y,2017-11-28 12:02,15
ST-1333,1450. 화랑대역 7번출구,25,중랑구,1804,서울특별시 중랑구 묵동 6-3,,37.61963654,127.0850449,Y,2017-11-28 12:03,10
ST-1334,1451. 중랑세무서,25,중랑구,2118,서울특별시 중랑구 망우로 176,중랑세무서,37.59275818,127.07267,Y,2017-11-28 12:04,10
ST-1335,1452. 겸재교 진입부,25,중랑구,2230,서울특별시 중랑구 겸재로 68,겸재교진입부,37.58565521,127.0750504,Y,2017-11-28 12:05,15
ST-1336,3519. 용답역 1번 출구,14,성동구,4761,서울특별시 성동구 용답길 86,용답역 1번 출구,37.56260681,127.0513077,Y,2017-11-28 14:05,10
ST-1337,2171. 서울대입구역 5번출구,31,관악구,8758,서울특별시 관악구 남부순환로 1817,서울대입구역 5번출구,37.48154831,126.9520035,Y,2017-11-28 14:57,17
ST-1338,1165. 마곡중학교 후문,22,강서구,7598,서울특별시 강서구 마곡중앙5로 58,마곡중학교 후문,37.56844711,126.8216476,Y,2017-12-08 9:00,20
ST-1339,832. 이촌1동 주민센터 뒤,19,용산구,4422,서울특별시 용산구 이촌로71길 24,이촌1동 주민센터 뒤,37.5212822,126.973465,Y,2017-12-22 14:16,15
ST-134,318. 광교사거리 남측,11,중구,4521,서울특별시 중구 청계천로 30,광교사거리 남측,37.56852722,126.9825516,Y,2015-10-07 12:16,10
ST-1340,833. 성촌공원 (이촌 119안전센터 앞),19,용산구,4374,서울특별시 용산구 이촌로2가길 1,성촌공원,0,0,N,2017-12-22 14:17,0
ST-1341,834. 효창공원앞역 3번출구 뒤,19,용산구,4318,서울특별시 용산구 백범로 지하 287,효창공원앞역 3번출구 뒤,37.53900909,126.96138,Y,2017-12-22 14:18,15
ST-1342,835. 남영역 건너편,19,용산구,4321,서울특별시 용산구 한강대로77길 18,남영역 건너편,37.54198074,126.9715424,Y,2017-12-22 14:20,10
ST-1343,836. 현대자동차서비스 앞,19,용산구,4365,서울특별시 용산구 원효로 74,현대자동차서비스 앞,37.53142166,126.9514999,Y,2017-12-22 14:21,15
ST-1344,837. 한남나들목 입구,19,용산구,4411,서울특별시 용산구 서빙고로 417,한남나들목 입구,37.52906036,127.0067291,Y,2017-12-22 14:22,10
ST-1345,1453. 중랑캠핑숲,25,중랑구,2062,서울특별시 중랑구 송림길 172,중랑캠핑숲,37.60460281,127.1092529,Y,2017-12-22 14:23,9
ST-1346,1454. 한국전력공사(동대문 중랑지사),25,중랑구,2045,서울특별시 중랑구 동일로 862,한국전력공사(동대문 중랑지사),37.6073494,127.0785904,Y,2017-12-22 14:24,10
ST-1347,1355. 보문2교,24,성북구,2849,서울특별시 성북구 보문로30길 29,보문2교,37.58869934,127.0189133,Y,2017-12-22 14:26,20
ST-1348,1675. 월계문화체육센터,26,노원구,1884,서울특별시 노원구 월계로 280,월계문화체육센터,37.62694168,127.05513,Y,2017-12-22 14:28,14
ST-1349,1677. 육군사관학교  앞,26,노원구,1805,서울특별시 노원구 화랑로 570,육군사관학교 앞,37.62316513,127.0904999,Y,2017-12-22 14:30,10
ST-135,319. 광주은행 서울영업부 앞(미설치),11,중구,4522,서울특별시 중구 남대문로 109,광주은행 서울영업부점 앞,0,0,N,2015-10-07 12:18,6
ST-1350,749. 이대 목동병원 앞,18,양천구,7985,서울특별시 양천구 안양천로 1071,이대 목동병원 앞,37.53722763,126.8866119,Y,2017-12-22 14:32,10
ST-1351,1166. 강서구립등빛도서관,22,강서구,7585,서울특별시 강서구 강서로62길 48,강서구립등빛도서관,37.56256866,126.8424606,Y,2017-12-22 14:33,10
ST-1352,1167. 마곡수명산파크3단지 교차로,22,강서구,7635,서울특별시 강서구 수명로 72,마곡수명산파크3단지 교차로,37.5534668,126.8259277,Y,2017-12-22 14:34,15
ST-1353,279. 영등포 푸르지오 아파트,17,영등포구,7365,서울특별시 영등포구 도신로29길 28,영등포 푸르지오 아파트,37.51322937,126.9044647,Y,2017-12-22 14:36,15
ST-1354,2063. 대방역 4번출구,30,동작구,7319,서울특별시 영등포구 여의대방로 300,대방역 4번출구,37.51290131,126.9266129,Y,2017-12-22 14:37,15
ST-1355,2064. 흑석한강푸르지오 106동앞,30,동작구,6981,서울특별시 동작구 흑석한강로 27,흑석한강푸르지오 106동앞,37.50535583,126.9661789,Y,2017-12-22 14:37,10
ST-1356,2065. 서울시여성가족재단,30,동작구,6939,서울특별시 동작구 여의대방로54길 18,서울여성가족재단,37.51198959,126.9270859,Y,2017-12-22 14:38,15
ST-1357,2176. 보라매공원 보도육교,31,관악구,8702,서울특별시 관악구 신사로 132,보라매공원 보도육교,37.48899078,126.9163818,Y,2017-12-22 14:39,15
ST-1358,2291. 서초어린이도서관 맞은편,32,서초구,6629,서울특별시 서초구 효령로77길 37,서초어린이도서관 맞은편,0,0,N,2017-12-22 14:40,0
ST-1359,2292. 무지개아파트 앞,32,서초구,6630,서울특별시 서초구 효령로 391,무지개아파트 앞,37.4882431,127.0270157,Y,2017-12-22 14:41,15
ST-136,320. 을지로입구역 4번출구 앞,11,중구,4539,서울특별시 중구 을지로 55,명동금융센터 앞,37.56622314,126.9835892,Y,2015-10-07 12:18,20
ST-1360,2293. SPC 앞,32,서초구,6737,서울특별시 서초구 남부순환로 2620,SPC 앞,37.48479843,127.0369949,Y,2017-12-22 14:42,10
ST-1361,2294. 두상빌딩 앞,32,서초구,6775,서울특별시 서초구 언남길 87,두상빌딩 앞,37.47590637,127.0462418,Y,2017-12-22 14:43,15
ST-1362,2295. 인랜드아파트 앞 지하차도 입구 사이,32,서초구,6790,서울특별시 서초구 동산로8길 75,인랜드아파트 앞 지하차도 입구 사이,0,0,N,2017-12-22 14:44,15
ST-1363,2296. 양재리본타워 2단지 앞,32,서초구,6770,서울특별시 서초구 매헌로16길 40,양재리본타워2단지 앞,0,0,N,2017-12-22 14:45,0
ST-1364,2384. 자곡사거리,33,강남구,6372,서울특별시 강남구 밤고개로 206,자곡사거리,37.47602844,127.1059418,Y,2017-12-22 14:46,10
ST-1365,2385. 학동역,33,강남구,6112,서울특별시 강남구 학동로 지하 180,학동역,37.51395035,127.0301514,Y,2017-12-22 14:46,10
ST-1366,2386. sk 동우주유소 앞,33,강남구,6109,서울특별시 강남구 봉은사로 지하 201,sk 동우주유소 앞,37.50958633,127.0409088,T,2017-12-22 14:47,10
ST-1367,1275. 거여초등학교 옆,23,송파구,5731,서울특별시 송파구 마천로25길 18,거여초등학교 옆,37.50458908,127.1393662,Y,2017-12-22 14:47,15
ST-1368,1046. 고덕역 (E-마트),21,강동구,5269,서울특별시 강동구 고덕로 276,고덕역(E-마트),0,0,N,2018-01-16 13:59,0
ST-1369,1047. 건강보험 강동지사kt,21,강동구,5354,서울특별시 강동구 천호대로175길 39,,37.53647232,127.1371536,Y,2018-01-16 14:01,10
ST-137,321. KEB 하나금융그룹 명동사옥 옆,11,중구,4538,서울특별시 중구 을지로 66,한국외환은행 본점 앞,37.56546402,126.9841385,Y,2015-10-07 12:19,15
ST-1370,1048. 동부기업(둔촌동),21,강동구,5364,서울특별시 강동구 둔촌동 77-2,,37.53099442,127.1423721,Y,2018-01-16 14:04,10
ST-1371,1049. 강일리버파크 10단지,21,강동구,5215,서울특별시 강동구 강일동 695-1,,37.561203,127.1802673,Y,2018-01-16 14:05,10
ST-1372,393. 동대문역 8번 출구,10,종로구,3198,서울특별시 종로구 율곡로 지하 308,동대문역 8번출구,37.57014084,127.0093765,Y,2018-01-26 14:06,10
ST-1373,394. 경희궁 자이 3단지,10,종로구,3180,서울특별시 종로구 경교장길 35,경희궁자이 3단지,37.56748962,126.9659195,Y,2018-01-26 14:07,15
ST-1374,395. 경희궁 자이 2단지,10,종로구,3165,서울특별시 종로구 송월길 99,경희궁 자이 3단지,37.56885529,126.9645615,Y,2018-01-26 14:08,8
ST-1375,1455. 상봉역 2번 출구,25,중랑구,2098,서울특별시 중랑구 망우로 297,상봉역 2번 출구,37.59632874,127.0858994,Y,2018-02-13 13:41,10
ST-1376,838. 숙대입구역 4번출구,19,용산구,4320,서울특별시 용산구 한강대로 지하 306,숙대입구역 4번출구,37.5444603,126.9723892,Y,2018-02-26 10:01,8
ST-1377,3522. 사근삼거리,14,성동구,4762,서울특별시 성동구 사근동 241-2,,37.56102753,127.0495224,C,2018-02-26 10:56,15
ST-1378,3520. 광진경찰서,15,광진구,5024,서울특별시 광진구 자양로 167,광진경찰서,37.54251862,127.0840836,Y,2018-02-26 10:57,10
ST-1379,3521. 현대홈타운 뒷길,15,광진구,4984,서울특별시 광진구 아차산로69길 29,현대홈타운 뒷길,37.54342651,127.0966187,Y,2018-02-26 10:58,10
ST-138,322. 명동성당 앞,11,중구,4537,서울특별시 중구 명동길 74,명동성당 앞,37.56447601,126.986969,Y,2015-10-07 12:19,15
ST-1380,1456. 상아빌딩(우림시장 교차로),25,중랑구,2182,서울특별시 중랑구 용마산로 494,상아빌딩(우림시장 교차로),37.59511185,127.1003265,Y,2018-02-26 11:05,10
ST-1381,1457. 동원사거리,25,중랑구,2162,서울특별시 중랑구 겸재로 229,동원사거리,37.58975983,127.0932388,Y,2018-02-26 11:06,10
ST-1382,1356. 성북동주민센터 앞,24,성북구,2880,서울특별시 성북구 성북로 37,성북동주민센터 앞,0,0,N,2018-02-26 11:08,0
ST-1383,1357. 북한산보국문역,24,성북구,2709,서울특별시 성북구 보국문로 91,북한산보국문역,37.61207199,127.0081329,Y,2018-02-26 11:09,20
ST-1384,1358. 정릉도서관 앞,24,성북구,2710,서울특별시 성북구 보국문로 7-10,정릉도서관 앞,37.60478973,127.010582,Y,2018-02-26 11:10,7
ST-1385,1359. 장위뉴타운 꿈에 숲 코오롱 하늘채 앞,24,성북구,2754,서울특별시 성북구 월계로 172,장위뉴타운 꿈에 숲 코오롱 하늘채 앞,37.61980057,127.0450974,Y,2018-02-26 11:13,20
ST-1386,1360. 정릉역,24,성북구,2815,서울특별시 성북구 정릉로 272,정릉역,37.60309601,127.013504,Y,2018-02-26 11:13,10
ST-1387,1537. 북한산 우이역,34,강북구,1001,서울특별시 강북구 삼양로 670,북한산 우이역,37.66366577,127.0124283,Y,2018-02-26 11:20,10
ST-1388,1538. 솔밭공원역,34,강북구,1005,서울특별시 강북구 삼양로 595,솔밭공원역,37.65615845,127.0131378,Y,2018-02-26 11:21,8
ST-1389,1539. 4.19민주묘지역,34,강북구,1010,서울특별시 강북구 삼양로 519,4.19민주묘지역,37.64967346,127.0134506,Y,2018-02-26 11:22,10
ST-139,323. 서울 중앙우체국 앞,11,중구,4535,서울특별시 중구 소공로 70,서울중앙우체국 앞,37.56179428,126.9815826,C,2015-10-07 12:20,3
ST-1390,1540. 가오리역,34,강북구,1041,서울특별시 강북구 삼양로 426,가오리역,37.64167023,127.0168839,Y,2018-02-26 11:23,10
ST-1391,1541. 삼양역,34,강북구,1109,서울특별시 강북구 삼양로 263,삼양역,37.62652969,127.0180588,Y,2018-02-26 11:26,10
ST-1392,1542. 삼양사거리역,34,강북구,1189,서울특별시 강북구 삼양로 197,삼양사거리역,37.62155151,127.0203705,Y,2018-02-26 11:27,10
ST-1394,1678. 성서대학교 밀알관,26,노원구,1757,서울특별시 노원구 동일로214길 32,성서대학교 밀알관,37.6484375,127.0644455,Y,2018-02-26 11:31,15
ST-1395,1679. 삼육대 도서관,26,노원구,1795,서울특별시 노원구 화랑로 815,삼육대 도서관,37.6428299,127.1066666,Y,2018-02-26 11:32,15
ST-1396,1680. 삼육대 제3과학관,26,노원구,1794,서울특별시 노원구 화랑로 653,삼육대 후문 삼거리,37.64265442,127.1083832,Y,2018-02-26 11:33,10
ST-1397,427. 성산시영아파트,12,마포구,3935,서울특별시 마포구 월드컵북로 260,성산시영아파트,37.56958389,126.9038162,Y,2018-02-26 11:34,10
ST-1398,750. 연의근린공원 건너편,18,양천구,8048,서울특별시 양천구 신정로7길 92,연의근린공원 건너편,37.51215744,126.8356247,Y,2018-02-26 11:37,10
ST-1399,751. 부영그린타운 2차,18,양천구,7984,서울특별시 양천구 목동동로 401,부영그린타운 2차,0,0,N,2018-02-26 11:38,0
ST-14,116. 일진아이윌아파트 옆,13,서대문구,3716,서울특별시 서대문구 동교로 290,일진아이윌아파트 옆,37.56454086,126.9270706,Y,2015-09-07 1:30,5
ST-140,324. 신세계백화점 본점 앞,11,중구,4530,서울특별시 중구 퇴계로 77,신세계백화점 본점 앞,37.56134033,126.9804001,Y,2015-10-07 12:21,10
ST-1400,752. 성원2차 아파트,18,양천구,7956,서울특별시 양천구 목동중앙남로 100,성원2차 아파트,37.54218292,126.8633041,Y,2018-02-26 11:39,10
ST-1401,753. 강월초교입구 교차로,18,양천구,8041,서울특별시 양천구 남부순환로 578,강월초교입구 교차로,0,0,N,2018-02-26 11:40,0
ST-1402,1168. 마곡엠밸리10단지 앞,22,강서구,7629,서울특별시 강서구 마곡중앙1로 72,마곡엠밸리10단지 앞,37.56022644,126.8190689,Y,2018-02-26 11:41,10
ST-1403,1851. 가산디지털단지 7번출구,28,금천구,8510,서울특별시 금천구 벚꽃로 309,가산디지털단지 7번출구,37.48123169,126.881485,Y,2018-02-26 11:42,10
ST-1404,2297. 남부터미널역 1번출구,32,서초구,6643,서울특별시 서초구 서초중앙로 38,남부터미널역 1번출구,37.485672,127.0159226,Y,2018-02-26 11:43,10
ST-1405,2298. 래미안서초스위트앞,32,서초구,6608,서울특별시 서초구 서운로 221,래미안서초스위트앞,37.50241089,127.0216065,Y,2018-02-26 11:44,12
ST-1406,2299. 한전아트센터 앞,32,서초구,6732,서울특별시 서초구 효령로72길 60,한전아트센터 앞,37.48646927,127.0280609,Y,2018-02-26 11:45,12
ST-1407,2387. 래미안강남힐즈 사거리,33,강남구,6374,서울특별시 강남구 자곡로 101,래미안강남힐즈 사거리,37.47245407,127.096077,Y,2018-02-26 11:47,10
ST-1408,1277. 오금동 송파 참병원,23,송파구,5729,서울특별시 송파구 마천로 164,오금동 송파 참병원,37.50375748,127.1370926,Y,2018-02-26 11:48,8
ST-1409,1278. 송파구청 교차로,23,송파구,5542,서울특별시 송파구 올림픽로 336,송파구청 교차로,37.51583099,127.1067963,Y,2018-02-26 11:50,10
ST-141,325. 가회동 주민센터 옆(미설치),10,종로구,3055,서울특별시 종로구 북촌로 35,가회동 주민센터 옆,0,0,N,2015-10-07 12:21,8
ST-1410,1279. 마천금호어울림 1차아파트 건너편,23,송파구,5749,서울특별시 송파구 성내천로39길 4,마천금호어울림 1차아파트 건너편,37.49751663,127.1546783,Y,2018-02-26 11:53,10
ST-1411,1280. 송파파크데일 2단지입구 앞 주차장,23,송파구,5748,서울특별시 송파구 성내천로47길 23,송파파크데일 2단지입구 앞 주차장,37.49565887,127.1571732,Y,2018-02-26 11:54,20
ST-1412,1281. 우창아파트 상가,23,송파구,5740,서울특별시 송파구 동남로24길 6,우창아파트 상가,0,0,N,2018-02-26 11:54,10
ST-1413,1282. 송파소방서 맞은편(성내4교),23,송파구,5737,서울특별시 송파구 오금로51길 56,송파소방서 맞은편(성내4교),37.49987411,127.1414795,Y,2018-02-26 11:56,10
ST-1414,1283. 오금공원 사거리,23,송파구,5725,서울특별시 송파구 오금로 363 오금근린공원,,37.50541306,127.131691,Y,2018-02-26 11:56,8
ST-1415,1284. 위례동 주민센터,23,송파구,5849,서울특별시 송파구 위례광장로 210,위례동 주민센터,0,0,N,2018-02-26 11:57,0
ST-1416,1285. 위례별 유치원 뒤,23,송파구,5852,서울특별시 송파구 위례광장로 136,위례별 유치원 뒤,37.4774704,127.1445923,Y,2018-02-26 11:59,15
ST-1417,1286. 위례중앙푸르지오 1단지 앞,23,송파구,5852,서울특별시 송파구 위례광장로 120,위례중앙푸르지오 1단지 앞,37.47437668,127.1406708,Y,2018-02-26 12:00,10
ST-1418,1287. 위례아이파크 101동 맞은편,23,송파구,5853,서울특별시 송파구 위례순환로 419,위례아이파크 101동 맞은편,37.47753143,127.1415176,Y,2018-02-26 12:00,8
ST-1419,1288. 문정중교 사거리,23,송파구,5800,서울특별시 송파구 송이로 238,문정중교 사거리,37.48799896,127.1310883,Y,2018-02-26 12:02,15
ST-142,326. 안국역 5번출구 앞,10,종로구,3147,서울특별시 종로구 율곡로 지하62,안국역 5번출구 앞,37.57624054,126.9861603,Y,2015-10-07 12:22,19
ST-1420,1050.  둔촌역 3번 출입구,21,강동구,5404,서울특별시 강동구 양재대로 1349,,37.52678299,127.1355743,Y,2018-02-26 12:03,15
ST-1421,1051. 양지시장 (용성약국앞) 입구,21,강동구,5237,서울특별시 강동구 암사동 531,,37.55483627,127.1373215,Y,2018-02-26 12:05,15
ST-1422,1289. 풍납동 자전거보관소,23,송파구,5535,서울특별시 송파구 토성로 2,풍납동 자전거보관소,37.53147125,127.1110916,Y,2018-02-26 12:05,10
ST-1423,1543. 수유1동 주민센터,34,강북구,1103,서울특별시 강북구 삼양로 299,수유1동 주민센터,37.63018799,127.0177383,Y,2018-02-26 12:06,10
ST-1424,1361. 홍익중고 입구,24,성북구,2835,서울특별시 성북구 성북로14가길 23,홍익중고 입구,37.5928421,127.002121,Y,2018-02-26 12:07,20
ST-1425,1681. 현대6차 아파트,26,노원구,1728,서울특별시 노원구 중계로8길 20,현대6차 아파트,37.64580154,127.0822601,Y,2018-03-15 14:21,12
ST-1426,1682. 중계종합사회복지관 교차로,26,노원구,1711,서울특별시 노원구 덕릉로 662,중계종합사회복지관 교차로,37.65679932,127.0776062,Y,2018-03-15 14:22,13
ST-1427,3510. 중곡SK아파트앞,15,광진구,4938,서울특별시 광진구 용마산로32길 32,중곡SK아파트앞,37.56864929,127.0862503,Y,2018-03-23 14:03,10
ST-1428,3524. 세종대학교,15,광진구,5006,서울특별시 광진구 군자로 114,세종대학교,37.55023575,127.073822,Y,2018-04-09 10:27,15
ST-1429,3523. 건국대학교 과학관(이과대) 앞,15,광진구,5029,서울특별시 광진구 능동로 120,건국대학교 과학관(이과대) 앞,37.54171753,127.0801697,Y,2018-04-16 14:09,10
ST-143,327. 낙원상가 옆,10,종로구,3140,서울특별시 종로구 삼일대로 428,낙원상가 옆,37.57335663,126.9874649,Y,2015-10-07 12:22,10
ST-1430,2168. 서울대입구역 8번출구,31,관악구,8738,서울특별시 관악구 남부순환로 1827,서울대입구역 8번출구,0,0,N,2018-04-16 16:05,0
ST-1431,396. 종로5가 지하쇼핑센터 10번출구(우정약국),10,종로구,3195,서울특별시 종로구 종로 지하 200,우정약국,0,0,N,2018-04-30 11:12,0
ST-1432,397. 종묘공영주차장 건너편,10,종로구,3195,서울특별시 종로구 종로 지하 200,종묘공영주차장 건너편,37.57048035,126.9966354,Y,2018-04-30 11:16,13
ST-1433,2388. 강남구 도시관리공단,33,강남구,6085,서울특별시 강남구 삼성로 628,강남구 도시관리공단,37.51678467,127.0516129,Y,2018-06-20 12:05,10
ST-1434,1728. 서울북부지방법원,27,도봉구,1322,서울특별시 도봉구 마들로 749,서울북부지방법원,37.67766571,127.0462418,Y,2018-06-25 13:17,15
ST-1435,398. 을지로3가역 3번출구,11,중구,4549,서울특별시 중구 을지로 지하 129,을지로3가역 3번출구,37.56655884,126.9924393,Y,2018-07-19 18:00,8
ST-1436,399. 서울역 센트럴 자이아파트,11,중구,4500,서울특별시 중구 만리재로 175,서울역 센트럴 자이아파트,37.55410767,126.9654083,Y,2018-07-19 18:21,15
ST-1437,428. 명보사거리,11,중구,4549,서울특별시 중구 을지로 지하 129,명보사거리,37.56439972,126.9914322,Y,2018-07-19 18:22,10
ST-1438,429. 송도병원,11,중구,4600,서울특별시 중구 다산로 59-1,송도병원,37.54988861,127.0073471,Y,2018-07-19 18:23,8
ST-1439,430. KEB하나은행 장충동지점,11,중구,4606,서울특별시 중구 장충단로 192,KEB하나은행 장충동지점,37.56217194,127.0062637,Y,2018-07-19 18:24,8
ST-144,328. 탑골공원 앞,10,종로구,3140,서울특별시 종로구 종로 99,탑골공원 앞,37.57039642,126.9881897,Y,2015-10-07 12:23,11
ST-1440,431. 청계천 영도교,11,중구,4572,서울특별시 중구 청계천로 400,청계천 영도교,37.57089996,127.0195236,Y,2018-07-19 18:26,15
ST-1441,839. 보광동 삼성리버빌아파트 앞,19,용산구,4396,서울특별시 용산구 보광로5길 40,보광동 삼성리버빌아파트 앞,37.5240097,127.0014496,Y,2018-07-19 18:27,10
ST-1442,840. 용산 파크타워 앞,19,용산구,4385,서울특별시 용산구 서빙고로 67,용산 파크타워 앞,37.52365112,126.9702683,Y,2018-07-19 18:29,10
ST-1443,841. 신용산역 1번 출구,19,용산구,4386,서울특별시 용산구 한강대로 100,신용산역 1번 출구,37.52960968,126.9688721,Y,2018-07-19 18:31,15
ST-1444,842. 한강대교북단 자전거무인대여소 내,19,용산구,4381,서울특별시 용산구 이촌로34길 29,한강대교북단 자전거무인대여소 내,37.52278137,126.9610291,N,2018-07-19 18:32,0
ST-1445,843. 녹사평역 광장,19,용산구,4390,서울특별시 용산구 이태원로 134,녹사평역 광장,37.53379822,126.9886704,Y,2018-07-19 18:34,10
ST-1446,844. 이촌2동 동원베네스트 아파트 앞,19,용산구,4374,서울특별시 용산구 이촌로14길 7,이촌2동 동원베네스트 아파트 앞,37.5271492,126.9551621,Y,2018-07-19 18:35,11
ST-1447,652. 답십리 래미안엘파인아파트 입구,16,동대문구,2533,서울특별시 동대문구 사가정로 190,답십리 래미안엘파인아파트 입구,37.57653046,127.0659409,Y,2018-07-19 18:36,20
ST-1448,653. 이문동 삼거리,16,동대문구,2406,서울특별시 동대문구 신이문로 3,이문동 삼거리,37.60308838,127.0622025,N,2018-07-19 18:37,0
ST-1449,654. 전농동 텃골공원,16,동대문구,2553,서울특별시 동대문구 사가정로 65,전농동 텃골공원,37.57762146,127.0521088,Y,2018-07-19 18:40,10
ST-145,329. 청계2가 사거리 옆,10,종로구,3191,서울특별시 종로구 청계천로 93,청계2가 사거리 옆,37.56834412,126.9878922,Y,2015-10-07 12:24,8
ST-1450,655. 청량리동 한신아파트 입구,16,동대문구,2463,서울특별시 동대문구 제기로 131,청량리동 한신아파트 입구,37.5867691,127.04776,N,2018-07-19 18:41,0
ST-1451,1458. 상봉터미널2,25,중랑구,2163,서울특별시 중랑구 용마산로115길 127,용마산로115길 127,37.59733963,127.0930862,Y,2018-07-19 18:43,9
ST-1452,1459. 용마한신아파트사거리,25,중랑구,2250,서울특별시 중랑구 용마산로 313,용마한신아파트사거리,37.58034897,127.0926514,Y,2018-07-19 18:44,10
ST-1453,1460. 신내 쌍용아파트,25,중랑구,2075,서울특별시 중랑구 봉화산로 130,신내 쌍용아파트,37.60359955,127.0895615,N,2018-07-19 18:45,0
ST-1454,1362. 보문역6번출구 앞,24,성북구,2852,서울특별시 성북구 보문로 112-2,보문역6번출구 앞,37.58509827,127.0196762,Y,2018-07-19 18:47,10
ST-1455,1363. 보문4교 인근,24,성북구,2858,서울특별시 성북구 보문로22길 28,보문4교 인근,37.58375168,127.0219498,Y,2018-07-19 18:48,15
ST-1456,1364. 성북동 치안센터 앞,24,성북구,2880,서울특별시 성북구 성북로 25,성북동 치안센터 앞,37.59017181,127.0040894,Y,2018-07-19 18:49,10
ST-1457,1365. 선잠단지 앞,24,성북구,2837,서울특별시 성북구 성북로 102-10,선잠단지 앞,37.5933609,126.9990921,Y,2018-07-19 18:51,15
ST-1458,1366. 일신초등학교 옆,24,성북구,2795,서울특별시 성북구 월곡로 74,일신초등학교 옆,37.59972,127.0403824,Y,2018-07-19 18:52,10
ST-1459,1367. 길음문화복합미디어센터,24,성북구,2721,서울특별시 성북구 길음로7길 20,길음문화복합미디어센터,37.60351181,127.0225601,Y,2018-07-19 18:53,15
ST-146,330. 청계천 한빛광장,11,중구,4540,서울특별시 중구 남대문로10길 33,삼각동 118,37.56816483,126.9849777,T,2015-10-07 12:25,10
ST-1460,1368. 성신여대입구 교차로,24,성북구,2844,서울특별시 성북구 보문로34길 87,성신여대입구 교차로,37.59148026,127.0201035,Y,2018-07-19 18:54,10
ST-1461,1729. 파리바게트앞,27,도봉구,1303,서울특별시 도봉구 도봉로 891,파리바게트앞,37.68400955,127.0457916,Y,2018-07-19 18:55,10
ST-1462,1730. 도봉산역 교차로 앞,27,도봉구,1301,서울특별시 도봉구 도봉산길 10,도봉산역 교차로 앞,37.68759155,127.0455017,Y,2018-07-19 18:57,10
ST-1463,1731. 도봉고등학교 맞은편,27,도봉구,1301,서울특별시 도봉구 도봉동 282-16,,37.6876297,127.0422134,Y,2018-07-19 19:00,15
ST-1464,1732. 우리은행 앞,27,도봉구,1351,서울특별시 도봉구 도봉로 707,우리은행 앞,37.66759872,127.0429993,Y,2018-07-19 19:01,10
ST-1465,1733. 방학사거리 (봄마당 앞),27,도봉구,1346,서울특별시 도봉구 방학로 102,방학사거리 (봄마당 앞),37.66297913,127.0419388,Y,2018-07-19 19:02,12
ST-1466,1734. 쌍문현대1차아파트 108동 앞,27,도봉구,1387,서울특별시 도봉구 해등로 218,쌍문현대1차아파트 108동 앞,37.65814972,127.0326691,Y,2018-07-19 19:03,10
ST-1467,"1735. 도봉역 1,2번 출구사이 건너편",27,도봉구,1321,서울특별시 도봉구 도봉로170길 2,"도봉역 1,2번 출구사이 건너편",37.67911911,127.0449829,Y,2018-07-19 19:04,13
ST-1468,1736. 버스정류장 앞,27,도봉구,1428,서울특별시 도봉구 도봉로 528,버스정류장 앞,37.65224075,127.0370636,Y,2018-07-19 19:05,12
ST-1469,1737. 하나은행 (창동점),27,도봉구,1470,서울특별시 도봉구 덕릉로 249,하나은행 (창동점),37.63970184,127.0388336,Y,2018-07-19 19:06,8
ST-147,331. 을지로2가 사거리 북측,11,중구,4541,서울특별시 중구 을지로 79,을지로2가 사거리 북측,37.56638336,126.9872055,Y,2015-10-07 12:25,10
ST-1470,1738. 창동주공17단지 상가앞,27,도봉구,1489,서울특별시 도봉구 덕릉로 404,창동주공17단지 상가앞,37.6463089,127.052742,Y,2018-07-19 19:08,10
ST-1471,1739. 창동한신,27,도봉구,1474,서울특별시 도봉구 덕릉로60바길 21,창동한신,37.6388588,127.0411758,C,2018-07-19 19:09,5
ST-1472,1740. 송학휴스테이,27,도봉구,1354,서울특별시 도봉구 도당로15길 36,송학휴스테이,37.66687012,127.0358734,N,2018-07-19 19:09,0
ST-1473,1683. 노원문화예술회관,26,노원구,1736,서울특별시 노원구 중계로 181,노원문화예술회관,37.65045929,127.0808868,Y,2018-07-19 19:11,10
ST-1474,1684. 태릉입구역 5번출구,26,노원구,1849,서울특별시 노원구 동일로 986,태릉입구역 5번출구와 6번출구 사이,37.61832047,127.0756302,Y,2018-07-19 19:13,20
ST-1475,1685. 불암고등학교 앞 횡단보도,26,노원구,1736,서울특별시 노원구 중계로 155,불암고등학교 앞 횡단보도,37.64818954,127.0804825,Y,2018-07-19 19:14,8
ST-1476,1686. 온수골사거리(스타벅스앞),26,노원구,1619,서울특별시 노원구 동일로227길 85,온수골사거리(스타벅스앞),37.66114044,127.0580521,Y,2018-07-19 19:14,10
ST-1477,1687. 서울월드컵경기장 테스트,12,마포구,1617,서울특별시 노원구 동일로227길 26,노원구 상계15단지,0,0,Y,2018-07-19 19:15,10
ST-1478,957. 드림캐시아 주상복합,20,은평구,3454,서울특별시 은평구 응암로 279,드림캐시아 주상복합,37.59743881,126.9200363,N,2018-07-19 19:16,0
ST-1479,958. 신한은행 응암동 지점 앞,20,은평구,3462,서울특별시 은평구 은평로 136,신한은행 응암동 지점 앞,37.60036087,126.9228134,Y,2018-07-19 19:17,13
ST-148,332. 을지로2가 사거리 남측,11,중구,4551,서울특별시 중구 을지로 100,을지로2가 사거리 남측,37.56599045,126.987793,Y,2015-10-07 12:26,5
ST-1480,959. 구파발10단지 인근,20,은평구,3301,서울특별시 은평구 진관3로 73-17,구파발10단지 인근,37.6436615,126.9145584,Y,2018-07-19 19:19,10
ST-1481,960. 구파발역 환승센터,20,은평구,3306,서울특별시 은평구 진관2로 지하 15-25,구파발역 환승센터,37.63825226,126.9194565,Y,2018-07-19 19:20,15
ST-1482,961. 불광역 9번 출구,20,은평구,3368,서울특별시 은평구 통일로 732,불광역 9번 출구,37.61096954,126.9298096,Y,2018-07-19 19:22,8
ST-1483,962. 은평뉴타운 힐데스하임,20,은평구,3306,서울특별시 은평구 진관2로 15-46,은평구 진관2로 15-46,37.63925934,126.9189072,Y,2018-07-19 19:24,10
ST-1484,963. 대호프라자아파트,20,은평구,3364,서울특별시 은평구 불광로 90,대호프라자아파트,37.61442947,126.932579,Y,2018-07-19 21:06,13
ST-1485,964. 북한산힐스테이트 7차아파트,20,은평구,3357,서울특별시 은평구 통일로 796 북한산 힐스테이트7차,,37.61654282,126.9251251,Y,2018-07-19 21:07,10
ST-1486,965. 서울특별시 은평병원,20,은평구,3476,서울특별시 은평구 백련산로 90,서울특별시 은평병원,37.59347916,126.9231873,Y,2018-07-19 21:08,10
ST-1487,966. 서울혁신파크1,20,은평구,3371,서울특별시 은평구 통일로 684,서울혁신파크1,37.60903168,126.9346771,Y,2018-07-19 21:09,10
ST-1488,967. 서울혁신파크2,20,은평구,3371,서울특별시 은평구 통일로 684,서울혁신파크2,37.60890961,126.9324188,Y,2018-07-19 21:10,13
ST-1489,968. 은평뉴타운 상림마을 13단지,20,은평구,3303,서울특별시 은평구 진관4로 48-50,은평뉴타운 상림마을 13단지,37.64208984,126.9294128,Y,2018-07-19 21:10,7
ST-149,333. 창덕궁 매표소 앞,10,종로구,3072,서울특별시 종로구 창경궁로 185,창덕궁 매표소 앞,37.57770538,126.9917831,C,2015-10-07 12:27,10
ST-1490,969. 은평 지웰테라스,20,은평구,3303,서울특별시 은평구 진관4로 78-38,은평 지웰테라스,37.64385986,126.9318771,Y,2018-07-19 21:11,9
ST-1491,3103. 홍제삼거리 북측,13,서대문구,3629,서울특별시 서대문구 통일로 지하 440-1,홍제삼거리 북측,37.58670044,126.9467697,Y,2018-07-20 9:46,8
ST-1492,3104. e편한세상 신촌4단지 앞,13,서대문구,4116,서울특별시 마포구 신촌로 지하 270,e편한세상 신촌4단지 앞,37.55812836,126.9562073,Y,2018-07-20 9:48,13
ST-1493,3105. 홍은센트레빌 아파트 앞,13,서대문구,3647,서울특별시 서대문구 통일로 553,홍은센트레빌 아파트 앞,37.5971489,126.93853,Y,2018-07-20 9:49,12
ST-1494,432. 마포중앙도서관,12,마포구,3965,서울특별시 마포구 성산로 128,마포중앙도서관,37.56333923,126.9082031,Y,2018-07-20 9:50,10
ST-1495,754. 목동1단지아파트 118동 앞 (월촌초등학교 정류소 옆),18,양천구,7980,서울특별시 양천구 목동서로 38,목동1단지아파트 118동 앞 (월촌초등학교 정류소 옆),37.54114151,126.8766785,Y,2018-07-20 9:51,10
ST-1496,755. 목동1단지아파트 상가 앞 (월촌중학교 버스정류소 옆),18,양천구,7980,서울특별시 양천구 목동서로 38,목동1단지아파트 상가 앞 (월촌중학교 버스정류소 옆),37.5378685,126.8814087,Y,2018-07-20 9:52,10
ST-1497,756. 목동주차장,18,양천구,7990,서울특별시 양천구 목동동로 298,목동주차장,37.52667999,126.8761673,Y,2018-07-20 9:53,10
ST-1498,757. 신정이펜하우스 1단지아파트 입구 사거리,18,양천구,8046,서울특별시 양천구 신정이펜1로 99,신정이펜하우스 1단지아파트 입구 사거리,37.51427841,126.828743,Y,2018-07-20 9:53,10
ST-1499,758. 한사랑교회 앞,18,양천구,8092,서울특별시 양천구 목동동로 33,한사랑교회 앞,37.51472092,126.8591995,Y,2018-07-20 9:54,10
ST-15,111. 상수역 2번출구 앞,12,마포구,4068,서울특별시 마포구 와우산로 40,309-10,37.54787064,126.9235306,Y,2015-09-07 1:30,10
ST-150,334. 종로3가역 2번출구 뒤,10,종로구,3139,서울특별시 종로구 종로 지하129,종로3가역 2번출구 뒤,37.5705986,126.9917908,Y,2015-10-07 12:27,10
ST-1500,759. 보아스아파트 앞,18,양천구,7929,서울특별시 양천구 오목로3길 32,보아스아파트 앞,37.52407074,126.8386002,Y,2018-07-20 9:55,10
ST-1501,760. 잣절보도육교 아래,18,양천구,8109,서울특별시 양천구 남부순환로 699,잣절보도육교 아래,37.50682068,126.8442993,Y,2018-07-20 9:55,10
ST-1502,761. 목4동 혜연빌딩 앞,18,양천구,7959,서울특별시 양천구 등촌로 66,목4동 혜연빌딩 앞,37.53582001,126.8636322,N,2018-07-20 9:56,0
ST-1503,762. 오목로 무중력지대 앞,18,양천구,7999,서울특별시 양천구 신목로 126,오목로 무중력지대 앞,37.52455139,126.8770523,Y,2018-07-20 9:57,10
ST-1504,763. 목동11단지 아파트,18,양천구,8098,서울특별시 양천구 목동동로 10,목동11단지 아파트,37.51065826,126.8591614,Y,2018-07-20 9:58,10
ST-1505,764. 목동청소년수련관,18,양천구,7991,서울특별시 양천구 목동동로 323,목동자전거무료대여소,37.53102875,126.8758926,Y,2018-07-20 10:23,30
ST-1506,1169. 염창역 1번 출구,22,강서구,7558,서울특별시 강서구 공항대로 625,염창역 1번 출구,37.54719925,126.8744888,Y,2018-07-20 10:23,8
ST-1507,1170. 강서구보건소 (삼성디지털 프라자),22,강서구,7560,서울특별시 강서구 공항대로 571,강서구보건소 (삼성디지털 프라자),37.54917908,126.8687973,Y,2018-07-20 10:24,11
ST-1508,1171. 염창동 새마을금고 건너편 (모닝글로리),22,강서구,7555,서울특별시 강서구 양천로 696,염창동 새마을금고 건너편 (모닝글로리),37.55004883,126.8731613,Y,2018-07-20 10:25,8
ST-1509,1172. 가양3동 주민센터,22,강서구,7532,서울특별시 강서구 허준로 202,가양3동 주민센터,37.56124878,126.8605804,Y,2018-07-20 10:26,8
ST-151,335. 종로3가역 15번출구 앞,10,종로구,3139,서울특별시 종로구 종로 지하129,15번출구 앞,37.57019806,126.9912567,Y,2015-10-07 12:28,10
ST-1510,1173. 강서구청사거리(SH타워),22,강서구,7572,서울특별시 강서구 공항대로 411,강서구청사거리(SH타워),37.55625916,126.8533173,Y,2018-07-20 10:26,15
ST-1511,1174. 강서구청사거리(부민병원),22,강서구,7590,서울특별시 강서구 공항대로 395,강서구청사거리(부민병원),37.55659866,126.851471,Y,2018-07-20 10:27,9
ST-1512,1175. 대한항공 인력개발센터,22,강서구,7570,서울특별시 강서구 공항대로 453,대한항공 인력개발센터,37.55437851,126.8575363,Y,2018-07-20 10:27,15
ST-1513,1176. 공항고등학교 정문,22,강서구,7611,서울특별시 강서구 개화동로 495,공항고등학교 정문,37.56792068,126.8054733,N,2018-07-20 10:28,0
ST-1514,1177. 수명중․고교,22,강서구,7643,서울특별시 강서구 수명로1길 16,마곡수명산파크4단지아파트 401동 앞,37.55010986,126.8236771,Y,2018-07-20 10:29,10
ST-1515,1178. 개화산역 2번 출구,22,강서구,7601,서울특별시 강서구 양천로 22,개화산역 2번 출구,37.57247162,126.8061676,Y,2018-07-20 10:29,10
ST-1516,1179. 국민건강보험공단(강서지사) 건너편,22,강서구,7794,서울특별시 강서구 강서로 409,국민건강보험공단(강서지사) 건너편,37.56209946,126.8392563,N,2018-07-20 10:30,0
ST-1517,1180. 마곡엠밸리 15단지(1502동) 건너편,22,강서구,7811,서울특별시 강서구 마곡중앙로 36,마곡엠밸리 15단지(1502동) 건너편,37.55746841,126.8297195,Y,2018-07-20 10:31,15
ST-1518,1181. 농수산식품공사 (강서지사),22,강서구,7644,서울특별시 강서구 발산로 40,농산식품공사 (강서지사),37.55104446,126.8184967,Y,2018-07-20 10:32,10
ST-1519,1182. KBS 스포츠월드,22,강서구,7648,서울특별시 강서구 공항대로 376,KBS 스포츠월드,37.55687714,126.8488083,Y,2018-07-20 10:32,20
ST-152,336. 티마크 호텔 앞,11,중구,4554,서울특별시 중구 충무로 15,티마크호텔 앞,37.56261826,126.992836,Y,2015-10-07 12:29,10
ST-1520,1183. KC 대학교,22,강서구,7661,서울특별시 강서구 까치산로24길 47,KC 대학교,37.54832077,126.8534012,Y,2018-07-20 10:33,10
ST-1521,1986. 태평양물산빌딩,29,구로구,8380,서울특별시 구로구 디지털로31길 12,태평양물산IT빌딩 앞,37.48485947,126.8951874,Y,2018-07-20 10:34,15
ST-1522,1987. 개봉아이파크아파트 앞,29,구로구,8331,서울특별시 구로구 개봉로2길 133-15,개봉아이파크아파트 앞,37.49034119,126.8609314,Y,2018-07-20 10:35,15
ST-1523,1988. 고척LIGA아파트 앞,29,구로구,8218,서울특별시 구로구 중앙로 100,고척LIGA아파트 앞,37.50605011,126.8607864,Y,2018-07-20 10:36,20
ST-1524,1989. 청솔우성아파트 앞,29,구로구,8228,서울특별시 구로구 중앙로 101,청솔우성아파트,37.50616837,126.8602295,N,2018-07-20 10:37,0
ST-1525,1990. 오류동역 앞,29,구로구,8271,서울특별시 구로구 경인로 208,오류동역 앞,37.49594116,126.8440018,N,2018-07-20 10:38,0
ST-1526,1991. 오류동역 맞은편,29,구로구,8267,서울특별시 구로구 경인로 219,동방서적,37.49676132,126.8449631,Y,2018-07-20 10:39,10
ST-1527,1992. 구로구배드민턴실내체육관 앞,29,구로구,8254,서울특별시 구로구 경인로15길 75,구로구배드민턴실내체육관 앞,37.4917984,126.8324204,Y,2018-07-20 10:41,19
ST-1528,1993. 금강수목원아파트 앞,29,구로구,8358,서울특별시 구로구 오리로 1197,금강수목원아파트 앞,37.48937988,126.834198,Y,2018-07-20 10:42,10
ST-1529,1994. 삼성전자 물류센터 앞,29,구로구,8323,서울특별시 구로구 구일로 126,삼성전자 물류센터 앞,37.49699783,126.8717804,Y,2018-07-20 10:43,10
ST-153,337. 창경궁 입구,10,종로구,3072,서울특별시 종로구 창경궁로 185,창경궁 입구,37.57897949,126.9964752,Y,2015-10-07 12:29,5
ST-1530,1995. SK허브수 앞,29,구로구,8323,서울특별시 구로구 구일로10길 27,SK허브수 앞,37.49596024,126.8740387,N,2018-07-20 10:43,0
ST-1531,1996. 구일역 1번 출입구 앞,29,구로구,8323,서울특별시 구로구 구일로10길 27,SK허브수 A동,37.49539948,126.8710098,Y,2018-07-20 10:44,20
ST-1532,1997. 구로1동주민센터 앞,29,구로구,8324,서울특별시 구로구 구일로4길 57,구로1동주민센터 앞,37.49264908,126.8761826,N,2018-07-20 10:45,0
ST-1533,1852. 혜명양로원 담장 옆,28,금천구,8656,서울특별시 금천구 금하로29길 36,혜명양로원 담장 옆,37.45177078,126.9133987,Y,2018-07-20 10:50,10
ST-1534,1853. 서울디자인직업전문학교 앞,28,금천구,8535,서울특별시 금천구 가산로 70,서울디자인직업전문학교 앞,37.47248077,126.8958664,Y,2018-07-20 10:50,10
ST-1535,1854. 가산아네스트 오피스텔 앞,28,금천구,8530,서울특별시 금천구 남부순환로 1314,가산아네스트 오피스텔 앞,37.47817993,126.8974075,Y,2018-07-20 10:51,10
ST-1536,1855. 성지아파트 옆 도로변,28,금천구,8634,서울특별시 금천구 시흥대로51길 55,성지아파트 옆 도로변,37.45132065,126.8976212,Y,2018-07-20 10:52,10
ST-1537,1856. 모두의학교,28,금천구,8548,서울특별시 금천구 남부순환로128길 42,모두의학교,37.47840881,126.9073715,Y,2018-07-20 10:53,10
ST-1538,1857. 주공14단지,28,금천구,8597,서울특별시 금천구 한내로 69-54,주공14단지,37.46055984,126.8870926,Y,2018-07-20 10:54,15
ST-1539,280. 양평동6차현대아파트 앞,17,영등포구,7211,서울특별시 영등포구 선유로 213,선유중학교 정문,37.53210068,126.8944397,Y,2018-07-20 10:57,10
ST-154,338. 세운스퀘어 앞,10,종로구,3137,서울특별시 종로구 창경궁로 109,세운스퀘어 앞,37.57095718,126.9971237,Y,2015-10-07 12:30,18
ST-1540,281. 신동아아파트 앞,17,영등포구,7378,서울특별시 영등포구 가마산로 315,신동아아파트 앞,37.49824142,126.8939819,Y,2018-07-20 10:59,8
ST-1541,282. 신한은행,17,영등포구,7445,서울특별시 영등포구 시흥대로 617,신한은행,37.48752975,126.9048767,Y,2018-07-20 11:00,10
ST-1542,2066. 양문교회 앞,30,동작구,7069,서울특별시 동작구 시흥대로 646,미스터가이드양복전문점,37.48939896,126.9071121,Y,2018-07-20 11:02,10
ST-1543,2067. LG전자 베스트샾 대리점 앞,30,동작구,7056,서울특별시 동작구 여의대방로 122,LG전자 베스트샾 대리점 앞,37.49766922,126.9198685,Y,2018-07-20 11:04,10
ST-1544,2068. 총신대 앞(육교),30,동작구,7025,서울특별시 동작구 동작대로 지하 3,총신대 앞(육교),37.48815918,126.9664764,Y,2018-07-20 11:04,12
ST-1545,2070. 노량진역 2번 출구 앞,30,동작구,6902,서울특별시 동작구 노량진로 155,노량진역 2번 출구 앞,37.51391983,126.9430695,Y,2018-07-20 11:06,12
ST-1546,2177. 신대방역 2번 출구,31,관악구,8701,서울특별시 관악구 난곡로 367,신대방역 2번 출구,37.48712921,126.9130173,Y,2018-07-20 11:07,19
ST-1547,2178. 서울대학교 정문,31,관악구,8826,서울특별시 관악구 관악로 1,서울대학교 정문,37.46681976,126.9488068,Y,2018-07-20 11:08,15
ST-1548,2179. 양녕로 입구,31,관악구,8757,서울특별시 관악구 남부순환로 1761,양녕로 입구,37.48218918,126.9461594,Y,2018-07-20 11:09,7
ST-1549,2180. 신림동주민센터,31,관악구,8707,서울특별시 관악구 신림동길 8,신림동주민센터,37.48751068,126.9277878,Y,2018-07-20 11:09,10
ST-155,339. 종로4가 사거리,10,종로구,3130,서울특별시 종로구 종로 185,종로4가 사거리,37.57106781,126.9981918,Y,2015-10-07 12:30,10
ST-1550,2181. 신림벽산블루밍,31,관악구,8848,서울특별시 관악구 호암로 519,신림벽산블루밍,37.4640007,126.9312515,N,2018-07-20 11:10,0
ST-1551,2182. 신림서초,31,관악구,8821,서울특별시 관악구 호암로16길 5,신림서초,37.46337891,126.9319687,N,2018-07-20 11:12,0
ST-1552,2501. 서초 포레스타5단지,32,서초구,6798,서울특별시 서초구 청계산로7길 43,서초 포레스타5단지,37.45066071,127.0570602,Y,2018-07-20 11:13,10
ST-1553,2502. 서초역1번출구 앞,32,서초구,6647,서울특별시 서초구 서초대로 248,서초역1번출구 앞,37.49195099,127.0085526,Y,2018-07-20 11:14,9
ST-1554,2503. 반포1동 서초빌딩 앞,32,서초구,6542,서울특별시 서초구 사평대로 349,반포1동 서초빌딩 앞,37.50381088,127.0213623,Y,2018-07-20 11:16,10
ST-1555,2504. 신사역 4번출구 뒤,32,서초구,6526,서울특별시 서초구 강남대로 605,신사역 4번출구 뒤,37.51588058,127.0193024,Y,2018-07-20 11:17,10
ST-1556,2505. 우성아파트사거리 (기업은행앞),32,서초구,6626,서울특별시 서초구 강남대로 341,삼원빌딩,37.49325943,127.0295334,Y,2018-07-20 11:19,12
ST-1557,2506. LG유플러스 (방배사옥),32,서초구,6697,서울특별시 서초구 효령로 58,LG유플러스 (방배사옥),37.47909164,126.9906769,Y,2018-07-20 11:19,10
ST-1558,2507. 서초젠트리스,32,서초구,6798,서울특별시 서초구 헌릉로8길 10-12,힐스테이트서초젠트리스,37.45587921,127.0581665,N,2018-07-20 11:20,0
ST-1559,2389. 경기여자고등학교 후문 (삼성로3길 입구),33,강남구,6324,서울특별시 강남구 개포로 지하 420,경기여자고등학교 후문 (삼성로3길 입구),37.48616028,127.0672379,Y,2018-07-20 11:21,15
ST-156,340. 혜화동 로터리,10,종로구,3075,서울특별시 종로구 창경궁로 271-1,혜화동 로터리,37.58562851,127.000679,Y,2015-10-07 12:31,8
ST-1560,2390. 구룡마을 입구 (래미안블레스티지 아파트),33,강남구,6358,서울특별시 강남구 양재대로 478,구룡마을 입구 (래미안블레스티지 아파트),37.48088074,127.0630417,Y,2018-07-20 11:22,10
ST-1561,2391. 구룡터널 입구(개포1단지아파트),33,강남구,6358,서울특별시 강남구 양재대로 478,구룡마을 입구(개포1단지아파트),37.47598648,127.0596237,Y,2018-07-20 11:22,10
ST-1562,2392. 구룡산 입구 (구룡산 서울둘레길 입구),33,강남구,6313,서울특별시 강남구 양재대로 379,구룡산 입구 (구룡산 서울둘레길 입구),37.47457886,127.0554504,Y,2018-07-20 11:24,15
ST-1563,2393. 구룡사 앞 교차로 (보도육교),33,강남구,6313,서울특별시 강남구 논현로2길 6,구룡사 앞 교차로 (보도육교),37.47200012,127.0513382,Y,2018-07-20 11:25,10
ST-1564,2394. 래미안강남포레스트 입구 (보도육교),33,강남구,6310,서울특별시 강남구 언주로 21,래미안강남포레스트 입구 (보도육교),37.47909164,127.055397,T,2018-07-20 11:26,10
ST-1565,2395. 개포1단지아파트 입구 (보도육교),33,강남구,6321,서울특별시 강남구 개포로 310,개포1단지아파트 입구 (보도육교),37.47929001,127.0557327,Y,2018-07-20 11:29,10
ST-1566,2396. 영동3교 북단(우성캐릭터 앞 보도),33,강남구,6295,서울특별시 강남구 언주로 118,영동3교 북단(우성캐릭터 앞 보도),37.48574066,127.0510483,Y,2018-07-20 11:29,15
ST-1567,2397. 아크로힐스논현아파트 입구,33,강남구,6102,서울특별시 강남구 언주로 604,아크로힐스논현아파트 입구,37.5096817,127.0379181,N,2018-07-20 11:30,0
ST-1568,2398. 더라움,33,강남구,6143,서울특별시 강남구 언주로 564,더라움,37.50811005,127.0394516,Y,2018-07-20 11:32,10
ST-1569,2399. 대모산입구 교차로 (푸른마을아파트 입구),33,강남구,6356,서울특별시 강남구 일원로14길 25,대모산입구 교차로 (푸른마을아파트 입구),37.48284912,127.0801621,N,2018-07-20 11:34,0
ST-157,341. 혜화역 3번출구 뒤,10,종로구,3086,서울특별시 종로구 대학로 지하120,혜화역 3번출구 뒤,37.58156967,127.0017853,Y,2015-10-07 12:32,10
ST-1570,2400. 일원역교차로 (푸른마을아파트 상가),33,강남구,6351,서울특별시 강남구 일원로 95,일원역교차로 (푸른마을아파트 상가),37.48348999,127.0837021,N,2018-07-20 11:34,0
ST-1571,2401. 밀알학교 입구 (삼성서울병원 입구),33,강남구,6350,서울특별시 강남구 일원로 90,밀알학교 입구 (삼성서울병원 입구),37.48656082,127.0826721,Y,2018-07-20 11:35,15
ST-1572,2402. 래미안루체하임 아파트 입구 (중동중학교 입구),33,강남구,6343,서울특별시 강남구 일원로 45,래미안루체하임 아파트 입구 (중동중학교 입구),37.48979187,127.0812225,N,2018-07-20 11:36,0
ST-1573,2403. 공무원연금매점 교차로 (개포주공9단지 입구),33,강남구,6345,서울특별시 강남구 영동대로4길 10,공무원연금매점 교차로 (개포주공9단지 입구),37.48871994,127.0745392,Y,2018-07-20 11:37,15
ST-1574,2404. 대모산입구역 4번 출구 앞,33,강남구,6330,서울특별시 강남구 개포로 지하 522,대모산입구역 4번 출구 앞,37.49180984,127.0731583,Y,2018-07-20 11:38,10
ST-1575,2405. 청담공원앞 교차로,33,강남구,6099,서울특별시 강남구 학동로 지하 346,청담공원앞 교차로,37.51871109,127.0508499,Y,2018-07-20 11:39,20
ST-1576,2406. 논현동 광명빌딩 앞,33,강남구,6039,서울특별시 강남구 도산대로 138,논현동 광명빌딩 앞,37.5175705,127.0236435,Y,2018-07-20 11:43,10
ST-1577,2407. 역삼.서초.삼성 세무서 앞 (역삼빌딩 앞),33,강남구,6232,서울특별시 강남구 강남대로 지하 396,역삼.서초.삼성 세무서 앞 (역삼빌딩 앞),37.49847031,127.0301132,Y,2018-07-20 11:44,10
ST-1578,2408. 강남한양수자인아파트,33,강남구,6370,서울특별시 강남구 자곡로 260,강남한양수자인아파트,37.4773407,127.1132736,Y,2018-07-20 11:44,14
ST-1579,1290. 위례송파꿈에그린아파트24단지 앞 성벽 다리 밑,23,송파구,5853,서울특별시 송파구 위례광장로 121,위례송파꿈에그린아파트24단지 앞 성벽 다리 밑,37.47465897,127.1377182,Y,2018-07-20 11:45,10
ST-158,342. 대학로 마로니에공원,10,종로구,3087,서울특별시 종로구 대학로 104,대학로 마로니에공원,37.57978439,127.002533,Y,2015-10-07 12:33,10
ST-1580,1291. 서울체육고등학교 앞,23,송파구,5541,서울특별시 송파구 강동대로 232,서울체육고등학교 앞,37.52193832,127.1318665,Y,2018-07-20 11:46,10
ST-1581,1292. 방이고분 공원,23,송파구,5644,서울특별시 송파구 오금로 231,방이고분 공원,37.50737,127.118103,N,2018-07-20 11:46,0
ST-1582,1293. 석촌호교차로 (스타벅스 앞),23,송파구,5602,서울특별시 송파구 석촌호수로 176,석촌호교차로 (스타벅스 앞),37.50656128,127.0965576,Y,2018-07-20 11:48,10
ST-1583,1294. 서울놀이마당앞 교차로,23,송파구,5608,서울특별시 송파구 삼학사로 136,서울놀이마당앞 교차로,37.50973129,127.0976868,N,2018-07-20 11:50,0
ST-1584,1295. 잠실역 8번출구,23,송파구,5510,서울특별시 송파구 올림픽로 305,잠실역 8번출구,37.51396179,127.1003037,Y,2018-07-20 11:50,20
ST-1585,1296. 석촌호수교차로 (송파나루근린공원 앞),23,송파구,5564,서울특별시 송파구 석촌호수로12길 1-16,석촌호수교차로 (송파나루근린공원 앞),37.50867844,127.1034317,Y,2018-07-20 11:51,10
ST-1586,1297. 석촌호수교차로(동호 팔각정 앞),23,송파구,5564,서울특별시 송파구 석촌호수로12길 1-16,석촌호수교차로(동호 팔각정 앞),37.50920105,127.1041184,Y,2018-07-20 11:52,10
ST-1587,1298. 석촌호수사거리(롯데월드),23,송파구,5510,서울특별시 송파구 송파대로 570,석촌호수사거리(롯데월드),37.51150131,127.1021195,N,2018-07-20 11:52,0
ST-1588,1299. 송파소방서 (방이119안전센터),23,송파구,5649,서울특별시 송파구 강동대로 286,송파소방서 (방이119안전센터),37.51987839,127.1367111,Y,2018-07-20 11:54,15
ST-1589,1300. 오륜사거리,23,송파구,5742,서울특별시 송파구 성내천로16길 17,오륜사거리,37.50693893,127.1392212,Y,2018-07-20 15:48,15
ST-159,343. 예일빌딩(율곡로) 앞,10,종로구,3123,서울특별시 종로구 율곡로 238,예일빌딩(율곡로) 앞,37.57543182,127.004982,Y,2015-10-07 12:34,12
ST-1590,2601. 석촌호수 서호사거리,23,송파구,5608,서울특별시 송파구 삼학사로 136,석촌호수 서호사거리,37.5067482,127.0988312,Y,2018-07-20 15:48,10
ST-1591,2602. 위례24단지 꿈에그린아파트,23,송파구,5853,서울특별시 송파구 위례광장로 121,위례24단지 꿈에그린아파트,37.47729111,127.1378937,C,2018-07-20 15:49,0
ST-1592,2603. 송파 글마루 도서관,23,송파구,5812,서울특별시 송파구 충민로 120,송파 글마루 도서관,37.48080063,127.1303406,Y,2018-07-20 15:51,10
ST-1593,1052. 리싸이클시티,21,강동구,5225,서울특별시 강동구 동남로 926 강동푸드마켓,,37.55644989,127.1568222,Y,2018-07-20 15:52,10
ST-1594,1053. 동명근린공원 진입로 (아리수로),21,강동구,5220,서울특별시 강동구 고덕동 230,,37.56254578,127.1644821,Y,2018-07-20 15:53,8
ST-1595,1054. 말우물 어린이 공원,21,강동구,5222,서울특별시 강동구 상일로21길 14-7 고덕2동경로당,,37.56002808,127.1696777,Y,2018-07-20 15:54,10
ST-1596,1055. 천동초교삼거리 (보도육교),21,강동구,5341,서울특별시 강동구 성안로 200,천동초교삼거리 (보도육교),37.54050827,127.1370087,N,2018-07-20 15:55,0
ST-1597,1056. 강일리버파크 7~11단지,21,강동구,5214,서울특별시 강동구 아리수로98길 25 강일리버파크7단지아파트,,37.56335449,127.1790543,Y,2018-07-20 15:59,10
ST-1598,1057. 능골근린공원,21,강동구,5285,서울특별시 강동구 강일동 736,,37.55580902,127.1737442,Y,2018-07-20 16:00,15
ST-1599,3525. 금호스포츠센터앞,14,성동구,4743,서울특별시 성동구 금호로 30,독서당 인문아카데미센터,37.54608917,127.0250702,Y,2018-07-20 16:01,15
ST-16,112. 극동방송국 앞,12,마포구,4067,서울특별시 마포구 와우산로 56,Feb-89,37.54920197,126.9232025,Y,2015-09-07 1:31,10
ST-160,344. 성균관대 E하우스 앞,10,종로구,3099,서울특별시 종로구 율곡로 259,성균관대 E하우스 앞,37.57403564,127.0067215,Y,2015-10-07 12:34,10
ST-1600,3526. 성수동아그린아파트,14,성동구,4791,서울특별시 성동구 상원길 76,성수동아그린아파트,37.55093002,127.0483398,N,2018-07-20 16:02,0
ST-1601,3527. 왕십리 자이아파트,14,성동구,4711,서울특별시 성동구 난계로 100,왕십리 자이아파트 103동 인근,37.56179047,127.0243912,Y,2018-07-20 16:03,8
ST-1602,3528. 광진정보도서관,15,광진구,4969,서울특별시 광진구 아차산로78길 90,광진정보도서관,37.55059814,127.1105118,Y,2018-07-20 16:05,8
ST-1603,3529. 어린이대공원정문,15,광진구,4991,서울특별시 광진구 능동로 216,어린이대공원정문,37.54978943,127.0759277,Y,2018-07-20 16:08,15
ST-1604,1544. 현대빌라,34,강북구,1020,서울특별시 강북구 인수봉로79길 93,현대빌라,37.64233017,127.0077896,N,2018-07-20 16:09,0
ST-1605,452. 동대문 종합시장 버스정류장,10,종로구,3126,서울특별시 종로구 종로 239,동대문 종합시장 버스정류장,37.57123947,127.0044098,Y,2018-07-20 16:12,13
ST-1606,453. 종로오가 지하쇼핑센터 14번출구,10,종로구,3195,서울특별시 종로구 종로 지하 200,종로5가 지하쇼핑센터 14번출구,37.57114029,127.0006714,Y,2018-07-20 16:13,10
ST-1607,454. 종로2가 버스정류장 (종각방향),10,종로구,3164,서울특별시 종로구 종로 79-1,종로2가 버스정류장 (종각방향),37.57035828,126.9863815,Y,2018-07-20 16:14,13
ST-1608,455. 삼익한의원,10,종로구,3197,서울특별시 종로구 종로 254-1,삼익한의원,37.570961,127.0060577,Y,2018-07-20 16:15,8
ST-1609,456. 숭인2동 주민센터 입구 (이강3대냉면),10,종로구,3112,서울특별시 종로구 종로 383-1,숭인2동 주민센터 입구 (이강3대냉면),37.57447052,127.0198288,Y,2018-07-20 16:17,10
ST-161,345. 서울보증보험본사 앞,10,종로구,3128,서울특별시 종로구 김상옥로 29,서울보증보험본사 앞,37.57330704,127.0007095,Y,2015-10-07 12:35,15
ST-1610,457. 종로꽃시장 입구 옆,10,종로구,3198,서울특별시 종로구 율곡로 지하 308,종로꾳시장 입구 옆,37.57131958,127.0072098,Y,2018-07-20 16:19,10
ST-1611,458. 광화문역 5번출구,10,종로구,3154,서울특별시 종로구 세종대로 지하 172,광화문역 5번출구,37.56993866,126.9775391,Y,2018-07-20 16:20,21
ST-1612,459. 이비스 앰배서더 호텔 인사동,10,종로구,3132,서울특별시 종로구 삼일대로30길 31,이비스 앰배서더 호텔 인사동,37.57426071,126.989502,N,2018-07-20 16:20,0
ST-1613,460. 경희궁 자이 2단지 내부,10,종로구,3165,서울특별시 종로구 송월길 99,경희궁 자이 2단지 내부,37.57125854,126.9625626,N,2018-07-20 16:21,0
ST-1614,1545. 솔샘역 2번 출구,34,강북구,1187,서울특별시 강북구 솔샘로 195,솔샘역 2번 출구,37.6203804,127.0136795,Y,2018-07-23 16:28,10
ST-1615,845. 용산 선인상가,19,용산구,4371,서울특별시 용산구 새창로 181,선인상가,37.53269958,126.9643784,Y,2018-08-07 16:59,22
ST-1616,3530. 왕십리자이아파트 후문(삼거리),14,성동구,4711,서울특별시 성동구 무학봉길 35,왕십리자이아파트 후문(삼거리),37.56014633,127.0263596,Y,2018-08-07 17:11,15
ST-1617,3531. 논골사거리(금호도서관 입구),14,성동구,4718,서울특별시 성동구 난계로 20,논골사거리(금호도서관 입구),37.55477905,127.0248413,Y,2018-08-07 17:16,15
ST-1618,3532. 왕십리KCC스위첸아파트,14,성동구,4711,서울특별시 성동구 무학봉길 35,왕십리KCC스위첸아파트,37.56068039,127.0267792,Y,2018-08-07 17:20,15
ST-1619,461. 서울지방경찰청,10,종로구,3169,서울특별시 종로구 사직로8길 31,서울지방경찰청,37.57436371,126.9723663,Y,2018-08-16 9:36,10
ST-162,346. 맥스타일 앞,11,중구,4567,서울특별시 중구 마장로 3,맥스타일,37.56918335,127.0098801,Y,2015-10-07 12:36,10
ST-1620,1060. 천일초교 사거리,21,강동구,5320,서울특별시 강동구 천호동 297-19,,37.5446701,127.1326752,Y,2018-08-21 14:08,8
ST-1621,1061. 천호초교 입구 사거리(일주빌딩),21,강동구,5310,서울특별시 강동구 구천면로 304 일주빌딩,,37.54689789,127.1346664,Y,2018-08-21 14:15,10
ST-1622,1062. 고덕숲 아이파크 2,21,강동구,5277,서울특별시 강동구 상일동 515-1,,37.5510788,127.1625977,Y,2018-08-21 14:25,15
ST-1623,1058. 고덕숲 아이파크 1,21,강동구,5277,서울특별시 강동구 상일동 518-2,,37.55348206,127.1650543,T,2018-08-21 14:59,12
ST-1624,662. 경희대학교 정문,16,동대문구,2453,서울특별시 동대문구 경희대로 24,경희대학교 정문,0,0,N,2018-08-22 10:59,0
ST-1625,661. 경희대학교 청운관,16,동대문구,2447,서울특별시 동대문구 경희대로 26,경희대학교 청운관,37.59460068,127.0519638,Y,2018-08-22 11:25,10
ST-1626,1059. 래미안 강동팰리스(102동),21,강동구,5340,서울특별시 강동구 천호동 571-2,,37.53822708,127.1317444,Y,2018-08-22 15:20,15
ST-1627,2604. 삼표레미콘 앞,23,송파구,5535,서울특별시 송파구 토성로 2,삼표레미콘 앞,37.53131104,127.1112824,Y,2018-08-22 17:17,10
ST-1628,656. 영휘원 교차로,16,동대문구,2464,서울특별시 동대문구 홍릉로 78-1,영휘원 교차로,37.58723831,127.0431366,Y,2018-08-24 17:15,10
ST-1629,657. 동대문롯데캐슬아파트 앞,16,동대문구,2551,서울특별시 동대문구 답십리로23길 30,동대문롯데캐슬아파트 앞,37.57575989,127.0483704,Y,2018-08-24 17:17,13
ST-163,347. 동대문역사문화공원역 9번출구 앞,11,중구,4565,서울특별시 중구 장충단로 지하230,동대문역사문화공원역 9번출구 앞,37.56533051,127.007843,Y,2015-10-07 12:37,18
ST-1630,658. 촬영소 사거리,16,동대문구,2535,서울특별시 동대문구 답십리로 233,촬영소 사거리,37.57294846,127.0661469,Y,2018-08-24 17:18,10
ST-1631,659. 제기역1번출구,16,동대문구,2576,서울특별시 동대문구 왕산로 87,제기역1번출구,37.57835007,127.0333862,Y,2018-08-24 17:20,15
ST-1632,660. 동의보감타워,16,동대문구,2566,서울특별시 동대문구 왕산로 128,동의보감타워,37.57799911,127.0376282,Y,2018-08-24 17:22,10
ST-1633,1369. 미아사거리,24,성북구,2729,서울특별시 성북구 동소문로 327,미아사거리,37.60913086,127.0300293,Y,2018-08-24 17:25,15
ST-1634,1370. 복자사랑 피정의 집,24,성북구,2837,서울특별시 성북구 성북로 132-4,복자사랑 피정의 집,37.59453964,126.9952087,Y,2018-08-24 17:27,20
ST-1635,1371. 한성대역5번출구,24,성북구,2880,서울특별시 성북구 창경궁로 325,한성대역5번출구,37.58839035,127.0056076,N,2018-08-24 17:28,7
ST-1636,1372. KEB은행 고대점,24,성북구,2842,서울특별시 성북구 인촌로 113,KEB은행 고대점,37.58644485,127.031601,Y,2018-08-24 17:29,15
ST-1637,1373. 성북구보건소 건너편,24,성북구,2751,서울특별시 성북구 화랑로 63,성북구보건소 건너편,37.60229111,127.0389786,Y,2018-08-24 17:30,8
ST-1638,1741. 제일강산수산입구,27,도봉구,1459,서울특별시 도봉구 도봉로 444,제일강산수산입구,37.64519882,127.0329819,Y,2018-08-24 17:32,15
ST-1639,1688. 마들역 7번출구,26,노원구,1674,서울특별시 노원구 동일로 지하 1530-1,마들역 7번출구,37.66566086,127.0572968,Y,2018-08-24 17:33,9
ST-1640,1689. 마들역 3번출구,26,노원구,1674,서울특별시 노원구 동일로 지하 1530-1,마들역 3번출구,37.66524887,127.0578919,Y,2018-08-24 17:34,10
ST-1641,1690. 도봉운전면허시험장,26,노원구,1688,서울특별시 노원구 동일로 1449,도봉운전면허시험장,37.6577301,127.0593109,Y,2018-08-24 17:35,10
ST-1642,1691. 노원정보도서관,26,노원구,1678,서울특별시 노원구 노원로34길 43,노원정보도서관,37.66070938,127.0653305,Y,2018-08-24 17:36,10
ST-1643,3106. 홍남교 두바퀴쉼터,13,서대문구,3700,서울특별시 서대문구 홍제천로 111,홍남교 두바퀴쉼터,37.57490921,126.9261475,Y,2018-08-24 17:37,12
ST-1644,3107. 연희초등학교 앞,13,서대문구,3723,서울특별시 서대문구 연희로 136,연희초등학교 앞,37.5697403,126.9333267,Y,2018-08-24 17:39,7
ST-1645,1184. 마곡13단지,22,강서구,7625,서울특별시 강서구 방화대로7길 6,마곡13단지,37.55644989,126.815979,Y,2018-08-24 17:41,15
ST-1646,1185. 등촌9단지,22,강서구,7577,서울특별시 강서구 화곡로63가길 92,등촌9단지,37.56290054,126.8494721,Y,2018-08-24 17:44,10
ST-1647,1186. 송정중학교,22,강서구,7628,서울특별시 강서구 방화대로5길 7,송정중학교,37.55472946,126.8160934,Y,2018-08-24 17:46,10
ST-1648,1858. 석수역1번출구 앞 (SK주유소),28,금천구,8641,서울특별시 금천구 시흥대로 39-7,석수역1번출구 앞 (SK주유소),37.43727112,126.9026871,Y,2018-08-24 17:56,10
ST-1649,283. 아크로타워 스퀘어(영등포시장),17,영등포구,7246,서울특별시 영등포구 양산로 213,아크로타워 스퀘어(영등포시장),37.52251816,126.9072189,Y,2018-08-24 19:54,15
ST-165,349. 사직동주민센터,10,종로구,3027,서울특별시 종로구 사직로9길 5,사직동주민센터,37.57633209,126.9685898,Y,2016-06-01 14:30,7
ST-1650,284. 센트럴 푸르지오 시티 앞,17,영등포구,7305,서울특별시 영등포구 문래로 180,센트럴 푸르지오 시티 앞,37.51821136,126.9022293,Y,2018-08-24 20:16,12
ST-1651,285. 대림3동사거리(하나은행),17,영등포구,7378,서울특별시 영등포구 가마산로 343,대림3동사거리(하나은행),37.49985886,126.8972397,Y,2018-08-24 20:18,8
ST-1652,286. 우성아파트 교차로,17,영등포구,7417,서울특별시 영등포구 대림로 153,우성아파트 교차로,37.49457169,126.8997498,Y,2018-08-27 14:02,8
ST-1653,287. 영등포전화국사거리 (서강어린이공원),17,영등포구,7228,서울특별시 영등포구 영중로 107,영등포전화국사거리 (서강어린이공원),37.52576828,126.9057388,Y,2018-08-27 14:05,10
ST-1654,2508. 양재이스타빌 앞,32,서초구,6740,서울특별시 서초구 논현로 151,도곡이스타빌,37.48297882,127.0422592,Y,2018-08-27 14:07,10
ST-1655,2509. KT반포지사,32,서초구,6550,서울특별시 서초구 사평대로 73,KT반포지사,37.49837112,126.9924622,Y,2018-08-27 14:08,16
ST-1656,2605. 복정역 1번 출구 앞,23,송파구,5844,서울특별시 송파구 송파대로 지하 6,복정역 1번 출구 앞,37.47129822,127.1270905,Y,2018-08-27 14:11,15
ST-1657,2606. 위례동주민센터 맞은편 근린공원,23,송파구,5767,서울특별시 송파구 마천로44길 15,위례동주민센터 맞은편 근린공원,37.48173904,127.1432266,Y,2018-08-27 14:12,10
ST-1658,2607. 복정역 2번출구 후문 (장지치안센터),23,송파구,5844,서울특별시 송파구 송파대로 지하 6,복정역 2번출구 후문 (장지치안센터),37.47064972,127.1271133,Y,2018-08-27 14:14,15
ST-1659,3538. 서울숲 IT캐슬,14,성동구,4788,서울특별시 성동구 광나루로 130,서울숲 IT캐슬,37.55089188,127.0447617,Y,2018-08-27 14:22,14
ST-166,350.KEB 하나은행(내자동 지점) 앞,10,종로구,3170,서울특별시 종로구 사직로8길 39,KEB 하나은행(내자동 지점) 앞,0,0,C,2016-06-01 14:30,0
ST-1660,3533. 건대입구역 사거리(롯데백화점),15,광진구,5065,서울특별시 광진구 능동로 92,건대입구역 사거리(롯데백화점),37.53913879,127.0706177,Y,2018-08-27 14:24,10
ST-1661,3534. 건대입구역 5번출구 뒤,15,광진구,5073,서울특별시 광진구 아차산로 236,건대입구역 5번출구 뒤,37.54013824,127.0692825,Y,2018-08-27 14:26,12
ST-1662,3535. 중곡사거리(국민은행),15,광진구,4922,서울특별시 광진구 용마산로 63,중곡사거리(국민은행),37.55915833,127.0875168,Y,2018-08-27 14:28,10
ST-1663,3536. 중앙농협(자양동),15,광진구,5060,서울특별시 광진구 뚝섬로 639,중앙농협(자양동),37.53181076,127.0807419,Y,2018-08-27 14:29,10
ST-1664,3537. 아차산 휴먼시아 아파트 옆,15,광진구,4981,서울특별시 광진구 천호대로 716,아차산 휴먼시아 아파트 옆,37.54848862,127.0937576,Y,2018-08-27 14:31,15
ST-1665,1546. 송천동우체국,34,강북구,1205,서울특별시 강북구 도봉로 71,송천동우체국,37.61545944,127.0297012,Y,2018-08-27 14:32,10
ST-1666,1374. 성북2동우편취급국,24,성북구,2880,서울특별시 성북구 성북로 59,성북2동우편취급국,0,0,N,2018-08-30 10:18,0
ST-1667,2069. 숭실대 입구역3번 출구 앞,30,동작구,7040,서울특별시 동작구 상도로 지하 378,숭실대 입구역3번 출구 앞,37.4966011,126.953682,Y,2018-09-28 11:39,7
ST-1668,433. 을지로입구역 2번출구,11,중구,4533,서울특별시 중구 을지로 지하 42,을지로입구역 1번출구,37.56634521,126.9822922,Y,2018-10-22 10:39,10
ST-1669,434. 신당 래미안 버스정류장,11,중구,4582,서울특별시 중구 퇴계로90길 74,신당 레미안 버스정류장 (112동 인근),37.56148911,127.0239334,Y,2018-10-22 10:42,10
ST-167,351. 청운초교 앞 삼거리,10,종로구,110030,서울특별시 종로구 청운동 108-22,청운초교 앞 삼거리,37.58507919,126.9706192,Y,2016-06-01 14:30,8
ST-1670,435. SK 남산빌딩,11,중구,4528,서울특별시 중구 퇴계로 33,SK 남산빌딩,37.55686188,126.9756165,Y,2018-10-22 10:45,10
ST-1671,663. 외대앞역 4번출구,16,동대문구,2431,서울특별시 동대문구 휘경로14가길 31,외대앞역 4번출구,37.59489059,127.0630264,Y,2018-10-22 10:46,10
ST-1672,1692. 온곡초교 교차로,26,노원구,1678,서울특별시 노원구 한글비석로 471,온곡초교 교차로,37.66418839,127.0660095,Y,2018-10-22 10:49,10
ST-1673,970. 서울소방학교,20,은평구,3312,서울특별시 은평구 통일로 1021,서울소방학교,37.63365936,126.9116974,N,2018-10-22 11:11,0
ST-1674,971. 역촌 센트레빌 아파트,20,은평구,3433,서울특별시 은평구 갈현로3나길 23,역촌 센트레빌 아파트 107동 인근,37.60232925,126.9065476,Y,2018-10-22 11:13,10
ST-1675,436. 이대역 5번출구,12,마포구,4104,서울특별시 마포구 신촌로 지하 180,이대역 5번출구,37.55659103,126.9461899,Y,2018-10-22 11:17,10
ST-1676,1187. 강서수산물도매시장,22,강서구,7644,서울특별시 강서구 발산로 24,강서수산물도매시장,37.55302048,126.818367,Y,2018-10-22 11:19,15
ST-1677,288. 쌍용예가(구청별관),17,영등포구,7256,서울특별시 영등포구 당산로31길 32,쌍용예가(구청별관) 101동 인근,37.52809906,126.8933868,Y,2018-10-22 11:20,10
ST-1678,2183. 동방1교,31,관악구,8838,서울특별시 관악구 신림로 144,동방1교,37.47182846,126.9339218,Y,2018-10-22 11:39,20
ST-1679,2409. 역삼동 디오슈페리움 (우성아파트 사거리),33,강남구,6252,서울특별시 강남구 강남대로 324,역삼동 디오슈페리움 (우성아파트 사거리),37.49206161,127.0307465,Y,2018-10-22 11:42,20
ST-168,352. 중앙고입구 삼거리,10,종로구,3056,서울특별시 종로구 창덕궁길 191,중앙고입구 삼거리,37.58341599,126.9852371,Y,2016-06-01 14:30,15
ST-1680,2410. 포스코피앤에스타워 (역삼역 3번출구 부근),33,강남구,6235,서울특별시 강남구 테헤란로 134,포스코피앤에스타워 (역삼역 3번출구 부근),37.49959946,127.0337524,Y,2018-10-22 11:44,10
ST-1681,2608. 송파구청,23,송파구,5552,서울특별시 송파구 올림픽로 326,송파구청,37.51435852,127.1061935,Y,2018-10-22 11:45,15
ST-1682,2609. 보성중고등학교 후문 앞,23,송파구,5649,서울특별시 송파구 양재대로 1278,보성중고등학교 후문 앞,37.52048874,127.1352005,Y,2018-10-22 13:12,10
ST-1683,2610. 여흥레이크빌 앞 (석촌호수 까페거리),23,송파구,5623,서울특별시 송파구 석촌호수로 278 여흥레이크빌,,37.51045227,127.1064072,Y,2018-10-22 13:14,10
ST-1684,2611. 송파지역자활센터 뒤,23,송파구,5516,서울특별시 송파구 풍성로5길 16,송파지역자활센터 뒤,37.53633118,127.1161804,Y,2018-10-22 13:15,7
ST-1685,2612. 문정·가락 대여소 앞,23,송파구,5834,서울특별시 송파구 중대로2길 6,문정·가락 대여소 앞,37.48907089,127.1092987,Y,2018-10-22 13:18,10
ST-1686,3539. 서원마을,21,강동구,5207,서울특별시 강동구 올림픽로 875 서울 암사동 유적,,37.56379318,127.1328354,Y,2018-10-22 13:33,10
ST-1687,1084. 윤선생빌딩(JYP사옥),21,강동구,5407,서울특별시 강동구 강동대로 205,JYP 사옥앞,37.5239296,127.1291275,N,2018-10-22 13:35,0
ST-1688,1193. 마곡센트럴타워 1차,22,강서구,7802,서울특별시 강서구 공항대로 227,마곡센트럴타워 1차,37.55947113,126.832077,Y,2018-11-02 10:03,15
ST-1689,1191. 마곡역 교차로(NH농협),22,강서구,7801,서울특별시 강서구 마곡중앙로 76,힐스테이트에코마곡역,37.5602417,126.8271637,Y,2018-11-02 10:34,9
ST-169,353. 재동초교 앞 삼거리,10,종로구,110250,서울특별시 종로구 재동 19,재동초교 앞 삼거리,37.57938766,126.9849472,Y,2016-06-01 14:30,8
ST-1690,3541. 커먼그라운드,15,광진구,5071,서울특별시 광진구 아차산로 200,커먼그라운드,37.54124832,127.06604,Y,2018-11-07 9:53,20
ST-1691,437. 대흥역 1번출구,12,마포구,4110,서울특별시 마포구 대흥로 지하 85,대흥역 1번출구,37.54821014,126.9413834,Y,2018-11-07 10:16,12
ST-1692,438. 성산2-1 공영주차장,12,마포구,3939,서울특별시 마포구 모래내로 31,성산2-1 공영주차장,37.56472015,126.9067688,Y,2018-11-07 10:19,15
ST-1693,439. 마포어린이공원,12,마포구,4178,서울특별시 마포구 마포대로4다길 31,마포어린이공원,37.53575134,126.9440384,Y,2018-11-07 10:20,10
ST-1694,1199. 우장산역 3번출구,22,강서구,7705,서울특별시 강서구 강서로 247,우장산역 3번출구,37.54782104,126.8361282,Y,2018-11-07 10:22,13
ST-1695,1200. 개화광역환승센터,22,강서구,7505,서울특별시 강서구 개화동로8길 38,개화광역환승센터,37.57844925,126.7989731,Y,2018-11-07 10:26,10
ST-1696,1998. 고척교 교차로,29,구로구,8278,서울특별시 구로구 경인로 482,롯데마트 건너편,37.49856949,126.871521,Y,2018-11-07 10:30,8
ST-1697,289. 대림3동사거리,17,영등포구,7401,서울특별시 영등포구 가마산로 352,대림3동사거리,37.49980927,126.8980026,Y,2018-11-07 10:33,10
ST-1698,290. 당산동 SK V1 빌딩,17,영등포구,7217,서울특별시 영등포구 당산로41길 11,당산동 SK V1 빌딩 인근,37.5315094,126.8978272,Y,2018-11-07 10:35,12
ST-1699,291. 문래동 하이테크 시티,17,영등포구,7299,서울특별시 영등포구 경인로 775,문래동 하이테크 시티,37.51385117,126.89888,Y,2018-11-07 10:39,14
ST-17,117. 홍은사거리,13,서대문구,3647,서울특별시 서대문구 통일로 483,홍은사거리 앞,37.59115982,126.94133,Y,2015-09-07 1:32,25
ST-170,354. 포르투갈 대사관 앞,10,종로구,3058,서울특별시 종로구 창덕궁1길 3,포르투갈 대사관 앞,37.57915497,126.9889603,Y,2016-06-01 14:30,10
ST-1700,292. 영일 어린이공원,17,영등포구,7365,서울특별시 영등포구 도신로29길 28,영일 어린이공원,37.51012039,126.904068,Y,2018-11-07 11:23,10
ST-1701,293. 충북 미래관,17,영등포구,7226,서울특별시 영등포구 버드나루로 125,충북 미래관,37.52917099,126.9075775,Y,2018-11-07 11:25,15
ST-1702,2184. 구암초등학교 버스정류장,31,관악구,8724,서울특별시 관악구 양녕로16길 4,구암초등학교 버스정류장,37.48949051,126.9459229,Y,2018-11-07 11:27,10
ST-1703,2411. 세곡동 성당,33,강남구,6378,서울특별시 강남구 밤고개로21길 50,세곡동 성당,37.47296906,127.1122284,Y,2018-11-07 11:28,15
ST-1704,2412. 일원1동 주민센터,33,강남구,6341,서울특별시 강남구 양재대로55길 14,일원1동주민센터,37.49179077,127.0882111,Y,2018-11-07 11:30,15
ST-1705,2613. 잠실나들목,23,송파구,5501,서울특별시 송파구 올림픽로 99,잠실엘스 261동 인근,37.51678085,127.0904923,Y,2018-11-07 11:33,18
ST-1706,2614. 가락고등학교 앞,23,송파구,5678,서울특별시 송파구 송이로 42,가락고등학교 앞,37.50186157,127.1172333,Y,2018-11-07 11:34,15
ST-1707,2615. 테라타워2,23,송파구,5854,서울특별시 송파구 송파대로 201,테라타워2,37.48834991,127.1207809,Y,2018-11-07 11:35,15
ST-1708,1188. 롯데중앙연구소,22,강서구,7594,서울특별시 강서구 마곡중앙로 201,롯데중앙연구소,37.57138062,126.8283386,Y,2018-11-15 13:59,8
ST-1709,1190. 마곡역 교차로(2번출구),22,강서구,7800,서울특별시 강서구 공항대로 지하 163,마곡역 교차로(2번출구),37.5605011,126.8266525,Y,2018-11-15 14:05,10
ST-171,355. 서울사대부속초교 앞,10,종로구,110460,서울특별시 종로구 연건동 178-3,서울사대부속초교 앞,37.57650757,127.0024567,Y,2016-06-01 14:30,15
ST-1710,1192. 마곡수명산파크 209동 건너편,22,강서구,7811,서울특별시 강서구 마곡중앙로 36,마곡수명산파크 2단지 209동 건너편,37.55553818,126.8267593,Y,2018-11-15 14:12,10
ST-1711,1194. 센서텍㈜,22,강서구,7795,서울특별시 강서구 마곡중앙8로3길 21,케이티엔에프빌딩 인근,37.56330109,126.8368225,Y,2018-11-15 14:28,10
ST-1712,1195. 코오롱One&Only타워,22,강서구,7793,서울특별시 강서구 마곡동로 110,코오롱글로벌㈜,37.56412888,126.8343124,Y,2018-11-15 14:44,20
ST-1713,1196. 서울식물원(문화센터) 건너편,22,강서구,7789,서울특별시 강서구 마곡동로 161,서울식물원(문화센터) 건너편,37.56824112,126.8358307,Y,2018-11-15 14:59,15
ST-1714,1197. 엘펠리체 호텔 건너편,22,강서구,7705,서울특별시 강서구 강서로 247,엘펠리체 호텔 건너편,37.5602417,126.8358078,Y,2018-11-15 15:01,20
ST-1715,1198. LG 사이언스파크,22,강서구,7796,서울특별시 강서구 마곡중앙10로 10,LG 사이언스파크,37.56254959,126.8274384,Y,2018-11-15 15:57,20
ST-1716,2616. 거여동 사거리,23,송파구,5743,서울특별시 송파구 거여동 11-3,,37.49704742,127.1403503,Y,2018-11-15 16:10,10
ST-1717,2617. 가락삼환아파트 앞,23,송파구,5769,서울특별시 송파구 오금로 지하 402,가락삼환아파트 앞,37.49618149,127.138031,Y,2018-11-15 16:13,15
ST-1718,2701. 마곡나루역 5번출구 뒤편,22,강서구,7788,서울특별시 강서구 마곡중앙5로 지하 2,마곡나루역(공항철도) 5번출구 뒤편,37.56520081,126.8273163,Y,2018-11-22 18:23,15
ST-1719,2621. 한성백제역 2번 출구,23,송파구,5540,서울특별시 송파구 위례성대로 51,한성백제역 2번 출구,37.51665878,127.1162567,Y,2018-11-27 13:22,15
ST-172,356. KT혜화지사 앞,10,종로구,3082,서울특별시 종로구 대학로 65,KT혜화지사 앞,37.57714462,127.0020599,Y,2016-06-01 14:30,15
ST-1720,2622. 올림픽공원역 3번출구,23,송파구,5540,서울특별시 송파구 양재대로 지하 1233,올림픽공원역 3번출구,37.51625824,127.1305924,Y,2018-11-27 13:25,20
ST-1721,846. 용산중학교,19,용산구,4353,서울특별시 용산구 두텁바위로 74,용산중학교,37.54663849,126.981041,Y,2018-11-27 14:17,15
ST-1722,3542. 래미안 구의파크 스위트,15,광진구,4978,서울특별시 광진구 광나루로 545,래미안 구의파크 스위트,37.54504013,127.0899582,Y,2018-11-27 14:26,17
ST-1723,1375. 생명의 전화 종합복지관 앞 교차로,24,성북구,2738,서울특별시 성북구 오패산로 21,생명의 전화 종합복지관 앞 교차로,37.60390854,127.0373764,Y,2018-11-27 14:30,20
ST-1724,1547. 꿈의숲 롯데캐슬,34,강북구,1232,서울특별시 강북구 오현로 56,꿈의숲 롯데캐슬 111동 인근,37.6186409,127.0362396,Y,2018-11-27 14:51,15
ST-1725,1548. 북서울 꿈의숲 서문,34,강북구,1228,서울특별시 강북구 월계로 173,북서울 꿈의숲 서문,37.62268829,127.0378113,Y,2018-11-27 14:57,15
ST-1726,1742. 북한산 코오롱 하늘채,27,도봉구,1370,서울특별시 도봉구 우이천로 367,북한산 코오롱 하늘채,37.64889145,127.0230179,Y,2018-11-27 15:10,10
ST-1727,2702. 마곡 엠밸리2단지,22,강서구,7598,서울특별시 강서구 마곡서1로 146,마곡엠밸리2단지 202동 인근,37.56917953,126.8194428,Y,2018-11-27 15:24,20
ST-1728,2618. 삼전역 1번출구,23,송파구,5567,서울특별시 송파구 백제고분로 187,삼전역 1번출구,37.50471115,127.0875626,Y,2018-11-27 15:27,14
ST-1729,2619. 석촌고분역 4번출구,23,송파구,5585,서울특별시 송파구 백제고분로 272,석촌고분역 4번출구,37.50233841,127.0964432,Y,2018-11-27 15:29,9
ST-173,358. 성대입구 사거리,10,종로구,3079,서울특별시 종로구 창경궁로 234,성대입구 사거리,37.58250046,126.9985352,Y,2016-06-01 14:30,13
ST-1730,2620. 송파나루역 4번 출구옆,23,송파구,5662,서울특별시 송파구 오금로 162,송파나루역 4번 출구옆,37.50997925,127.1123123,Y,2018-11-27 15:32,15
ST-1731,765. 오목교역 3번출구,18,양천구,7999,서울특별시 양천구 목동동로 270,오목교역 3번출구,37.52477646,126.8754807,Y,2018-12-17 14:37,10
ST-1732,1999. 수궁동 성당 주변,29,구로구,8255,서울특별시 구로구 부일로11길 51,동양빌라 주변,37.49525833,126.830658,Y,2019-02-01 11:58,15
ST-1733,2000. 신도림4차 e편한세상 아파트 1109동 앞,29,구로구,8208,서울특별시 구로구 경인로65길 16-15,신도림4차 e편한세상 아파트 1109동 앞,37.5123291,126.8868332,Y,2019-02-01 12:00,15
ST-1734,1859. 대륭테크노타운 18차,28,금천구,8594,서울특별시 금천구 가산디지털1로 19,대륭테크노타운 18차,37.4679985,126.8868408,Y,2019-02-01 12:02,20
ST-1735,2510. JW타워,32,서초구,6725,서울특별시 서초구 남부순환로 2477,JW타워,37.48303986,127.0214615,Y,2019-02-01 13:01,8
ST-1736,766. 신목동역 3번출구,18,양천구,7969,서울특별시 양천구 안양천로 1156,신목동역 3번출구 자전거 주차장,37.54433823,126.8832703,Y,2019-02-01 13:03,15
ST-1737,9995. 시설1,14,성동구,4704,서울특별시 성동구 청계천로 540,서울시설공단,0,0,N,2019-02-08 11:11,0
ST-1738,9996. 시설2,14,성동구,4704,서울특별시 성동구 청계천로 540,서울시설공단 공공자전거 운영처,0,0,Y,2019-02-08 11:12,0
ST-1739,2511. 이수역 6번출구 앞,32,서초구,6676,서울특별시 서초구 동작대로 80,이수역 6번출구 앞,37.48366165,126.9823227,Y,2019-02-11 14:03,10
ST-174,359. 원남동사거리,10,종로구,3081,서울특별시 종로구 율곡로 169,원남동사거리,37.57606125,126.9976807,Y,2016-06-01 14:30,8
ST-1740,1693. 원자력 병원,26,노원구,1812,서울특별시 노원구 노원로 75,원자력병원 국가방사선 비상진료센터,37.62818909,127.0821075,Y,2019-03-04 13:32,15
ST-1741,294. 국회의사당,17,영등포구,7233,서울특별시 영등포구 의사당대로 1,국회의사당,37.53229141,126.9140091,N,2019-03-20 16:29,0
ST-1742,2071. 대림아파트 후문 상가 옆,30,동작구,7005,서울특별시 동작구 사당로23길 137,대림아파트 후문 상가 옆,37.48886871,126.9719086,Y,2019-03-22 17:54,10
ST-1743,2512. 서울추모공원,32,서초구,6805,서울특별시 서초구 양재대로12길 74,서울추모공원,37.45370102,127.0431824,N,2019-04-24 13:39,0
ST-1744,2513. 트럭터미널앞 삼거리,32,서초구,6804,서울특별시 서초구 양재대로12길 18,트럭터미널앞 삼거리,37.46031952,127.0363007,N,2019-04-24 13:41,0
ST-1745,1376. 한국과학기술연구원 중문,24,성북구,2792,서울특별시 성북구 화랑로14길 5,한국과학기술연구원 정문,37.59732056,127.043808,Y,2019-05-15 10:26,7
ST-1746,1377. 한국과학기술연구원 북문,24,성북구,2792,서울특별시 성북구 화랑로14길 5,한국과학기술연구원 후문,37.60395813,127.0453415,Y,2019-05-15 10:34,10
ST-1747,시스템관리팀,2,정비센터,4704,서울특별시 성동구 청계천로 540,서울시설공단,0,0,R,2019-05-24 13:19,2
ST-1748,9994. 강남순회정비,2,정비센터,6676,서울특별시 영등포구 여의도동 85-3,,37.53730011,126.9332962,T,2019-05-24 13:25,3
ST-1749,임시 테스트,2,정비센터,4700,서울특별시 성동구 청계천로 432,윤수네집,0,0,N,2019-05-24 14:13,0
ST-175,361. 동묘앞역 1번출구 뒤,10,종로구,110550,서울특별시 종로구 숭인동 81-39,동묘앞역 1번출구 뒤,37.57324219,127.0159073,Y,2016-06-01 14:30,10
ST-1750,9993. 개화정비,2,정비센터,7505,서울특별시 강서구 개화동로8길 17,개화정비,37.57790756,126.7980423,R,2019-06-10 11:07,15
ST-1751,972. 수색역,20,은평구,3504,서울특별시 은평구 수색로 261,수색역,37.58216095,126.894928,Y,2019-06-10 11:18,20
ST-1752,462. 신영동삼거리(북악터널방향),10,종로구,3019,서울특별시 종로구 평창문화로 6-4,신영동삼거리(북악터널방향),37.60351181,126.9620667,Y,2019-06-17 13:39,15
ST-1753,2801. 대륭포스트타워1차,29,구로구,8381,서울특별시 구로구 디지털로31길 33-1,에이스트윈타워1차,37.48437119,126.8954239,Y,2019-07-10 14:59,30
ST-1754,440. 하늘공원 입구,12,마포구,3900,서울특별시 마포구 하늘공원로 108,,37.57012177,126.8813477,Y,2019-07-10 15:07,15
ST-1755,463. 삼청동 주민센터,10,종로구,3053,서울특별시 종로구 삼청로 100-1,삼청동 주민센터,37.58456039,126.982193,C,2019-07-30 15:05,10
ST-1756,464. 삼청동 골목,10,종로구,3054,서울특별시 종로구 팔판길 46,삼청동 골목,37.58419037,126.9816971,Y,2019-07-30 15:09,10
ST-1757,2185. 대학동 고시촌,31,관악구,8814,서울특별시 관악구 신림로 97 밀라트,,37.47046661,126.938652,Y,2019-08-20 17:32,10
ST-1758,664. 서울시립대 대학본부,16,동대문구,서울시립대학,서울특별시 동대문구 서울시립대로 163 서울시립대학교,,37.58412933,127.0579376,Y,2019-11-01 13:34,10
ST-1759,465. 삼청공원 앞,10,종로구,3050,서울특별시 종로구 삼청동 25-32,,37.58760452,126.9835968,Y,2019-11-07 17:19,5
ST-176,362. 청계8가 사거리,10,종로구,3116,서울특별시 종로구 청계천로 407,청계8가 사거리,37.57222366,127.0227051,Y,2016-06-01 14:30,10
ST-1760,3543. 세종대학교(학술정보원),15,광진구,5006,서울특별시 광진구 능동로 209 세종대학교,,37.55137253,127.07444,Y,2019-12-09 13:33,15
ST-1761,441.염천교사거리,11,중구,4516,서울 중구 순화동 214,,37.56261826,126.9698563,N,2020-01-23 15:21,2
ST-177,363. 신설동역 11번출구 뒤,10,종로구,110550,서울특별시 종로구 숭인동 1311,신설동역 11번출구 뒤,37.57575989,127.0228348,Y,2016-06-01 14:30,10
ST-178,364. 창신역 1번출구 앞,10,종로구,3095,서울특별시 종로구 지봉로 87,창신역 1번출구 앞,37.57933426,127.0150833,Y,2016-06-01 14:30,8
ST-179,365. 서대문역 3번출구 뒤,10,종로구,3181,서울특별시 종로구 평동 213,서대문역 3번출구 뒤,37.5664711,126.9668274,N,2016-06-01 14:30,8
ST-18,113. 홍대입구역 2번출구 앞,12,마포구,3995,서울특별시 마포구 양화로 165,156-8,37.55749893,126.9238052,Y,2015-09-07 1:32,25
ST-180,367. 독립문역 3-1번출구 ,10,종로구,110080,서울특별시 종로구 무악동 41-7,독립문역 3번출구 뒤,37.57384872,126.9586945,Y,2016-06-01 14:30,8
ST-181,368. SK 서린빌딩 앞,10,종로구,110110,서울특별시 종로구 서린동 93-2,SK 서린빌딩 앞,37.5692482,126.9805374,Y,2016-06-01 14:30,12
ST-182,369. 광화문 시민열린마당,10,종로구,110050,서울특별시 종로구 세종로 76-5,광화문 시민열린마당,37.57549286,126.9785004,Y,2016-06-01 14:30,20
ST-183,348. 독립문역 사거리,10,종로구,110090,서울특별시 종로구 교북동 10-1,독립문역 사거리,37.57202911,126.9607849,Y,2016-06-01 14:30,14
ST-185,370. 시청역(2호선) 9번출구 뒤,11,중구,4515,서울특별시 중구 서소문로 지하127,시청역(2호선) 9번출구 뒤,37.56322861,126.9748383,Y,2016-06-15 9:30,26
ST-186,371. 동대입구역 6번출구 뒤,11,중구,4617,서울특별시 중구 동호로 지하256,동대입구역 6번출구 뒤,37.55887222,127.0055389,Y,2016-06-15 9:30,10
ST-187,372. 약수역 3번출구 뒤,11,중구,4597,서울특별시 중구 다산로 지하122,약수역 4번출구 뒤,37.55429459,127.0112,Y,2016-06-15 9:30,10
ST-188,373. 청구 어린이공원,11,중구,4591,서울특별시 중구 다산로14길 41,약수어린이공원,37.55585861,127.013855,Y,2016-06-15 9:30,8
ST-189,374. 청구역 2번출구 앞,11,중구,4608,서울특별시 중구 청구로 지하77,청구역2번출구 앞,37.5604744,127.0140762,Y,2016-06-15 9:30,10
ST-19,118. 광흥창역 2번출구 앞,12,마포구,4099,서울특별시 마포구 독막로 지하165,243-3,37.54773331,126.9317627,Y,2015-09-07 1:33,10
ST-190,375. 다산 어린이공원,11,중구,4585,서울특별시 중구 다산로40길 37,다산 어린이공원,37.56371689,127.018425,Y,2016-06-15 9:30,8
ST-191,376. 을지로4가역 4번출구 앞,11,중구,4545,서울특별시 중구 창경궁로 지하51,을지로4가역 4번출구 앞,37.56826401,126.9981155,N,2016-06-15 9:30,0
ST-192,377. 서울역 5번출구 앞,11,중구,4527,서울특별시 중구 세종대로 지하2,서울역 4번출구 앞,37.55721664,126.9730072,C,2016-06-15 9:30,10
ST-193,378. 청계7가 사거리,11,중구,4570,서울특별시 중구 다산로 지하260,청계7가 사거리,37.56980515,127.0169525,Y,2016-06-15 9:30,10
ST-194,379. 서울역9번출구,11,중구,4527,서울특별시 중구 세종대로 지하2,서울역9번출구,37.55599976,126.9733582,Y,2016-06-15 9:30,7
ST-195,380. CJ제일제당 앞,11,중구,4560,서울특별시 중구 동호로 330,CJ제일제당 앞,37.56386566,127.0027466,Y,2016-06-15 9:30,8
ST-196,381. 장충체육관,11,중구,4671,서울특별시 중구 장충동2가 200-99,장충체육관,37.55853271,127.0069885,Y,2016-06-15 9:30,10
ST-197,382. 약수역 10번출구 앞,11,중구,100450,서울특별시 중구 신당동 357-1,약수역 10번출구 앞,37.55519867,127.0100479,Y,2016-06-15 9:30,7
ST-198,383. 신당역 12번 출구 뒤,11,중구,4576,서울특별시 중구 신당동 99,신당역 5번 출구,37.5658493,127.0164032,Y,2016-06-15 9:30,17
ST-199,384. 종로학원본원 ,11,중구,4510,서울특별시 중구 청파로 456,종로학원본원 앞,37.55978012,126.9685059,Y,2016-06-15 9:30,10
ST-2,100. 합정동 망원정지 (미설치),12,마포구,4019,서울특별시 마포구 동교로8안길 23,457-33,0,0,N,2015-09-06 23:39,5
ST-20,114. 홍대입구역 8번출구 앞,12,마포구,4051,서울특별시 마포구 양화로18길 3,192-5,37.55706024,126.9244232,Y,2015-09-07 1:33,15
ST-200,142. 아현역 4번출구 앞,12,마포구,121859,서울특별시 마포구 아현동 329-15,아현역 4번출구 앞,37.55720139,126.9556656,Y,2016-06-29 12:00,11
ST-201,143. 공덕역 2번출구,12,마포구,121804,서울특별시 마포구 공덕동 257-88,공덕역 2번출구,37.54457855,126.9502182,Y,2016-06-29 12:00,9
ST-202,144. 공덕역 8번출구,12,마포구,121805,서울특별시 마포구 공덕동 438-5,공덕역 8번출구,37.5435791,126.9513245,Y,2016-06-29 12:00,10
ST-203,145. 공덕역 5번출구,12,마포구,121803,서울특별시 마포구 공덕동 237-9,공덕역 5번출구,37.54425049,126.9516373,Y,2016-06-29 12:00,9
ST-204,146. 마포역 2번출구 뒤,12,마포구,121815,서울특별시 마포구 도화동 555-2,마포역 1번출구 뒤,37.53993607,126.9458237,Y,2016-06-29 12:00,12
ST-205,147. 마포역 4번출구 뒤,12,마포구,121813,서울특별시 마포구 도화동 292-29,마포역 4번출구 뒤,37.53927231,126.9459152,Y,2016-06-29 12:00,7
ST-206,148. 용강동 주민센터 앞,12,마포구,121876,서울특별시 마포구 용강동 234-1,용강동 주민센터 앞,37.54234695,126.9430237,Y,2016-06-29 12:00,11
ST-207,150. 서강대역 2번출구 앞,12,마포구,121807,서울특별시 마포구 노고산동 112-13,서강대역 2번출구 앞,37.55295563,126.9343414,Y,2016-06-29 12:00,15
ST-208,151. 망원1동주민센터,12,마포구,4010,서울특별시 마포구 망원동 403-2,망원1동주민센터,37.55568695,126.9055481,Y,2016-06-29 12:00,10
ST-209,152. 마포구민체육센터 앞,12,마포구,121230,서울특별시 마포구 망원동 452-4,마포구민체육센터 앞,37.55661011,126.8980179,Y,2016-06-29 12:00,30
ST-21,119. 서강나루 공원,12,마포구,4093,서울특별시 마포구 창전로 30,서강나루공원,37.54528427,126.9310532,Y,2015-09-07 1:34,10
ST-210,153. 성산2교 사거리,12,마포구,121250,서울특별시 마포구 성산동 54-17,성산2교 사거리,37.56469727,126.9126129,Y,2016-06-29 12:00,10
ST-211,154. 마포구청역 ,12,마포구,121230,서울특별시 마포구 망원동 477-23,마포구청역 ,37.56090927,126.9054947,Y,2016-06-29 12:00,13
ST-212,155. 가좌역1 번출구 뒤,12,마포구,121250,서울특별시 마포구 성산동123-29,가좌역1.2번출구,37.56855011,126.9145126,Y,2016-06-29 12:00,15
ST-213,156. 서울서부지방법원 앞,12,마포구,121801,서울특별시 마포구 공덕동 105-11,서울서부지방법원 앞,37.54990387,126.9551468,Y,2016-06-29 12:00,10
ST-214,157. 애오개역 4번출구 앞,12,마포구,121861,서울특별시 마포구 아현동 607-1,애오개역 4번출구 앞,37.5530014,126.9566879,Y,2016-06-29 12:00,12
ST-215,158. 독립문 어린이 공원,13,서대문구,120070,서울특별시 서대문구 영천동 259-1,독립문 어린이 공원,37.57125854,126.9604797,Y,2016-06-29 12:00,15
ST-216,159. 이대역 4번 출구,13,서대문구,3778,서울특별시 서대문구 대현동 60-11,이대역 4번 출구,37.55695343,126.9463425,Y,2016-06-29 12:00,7
ST-217,160. 북아현동 가구거리,13,서대문구,120822,서울특별시 서대문구 북아현동 251-78,아현동 가구거리,37.55754852,126.9593811,Y,2016-06-29 12:00,20
ST-218,161. 무악재역1번 출구,13,서대문구,3633,서울특별시 서대문구 통일로 380-4,무악재역1번 출구,37.58224487,126.9506455,Y,2016-06-29 12:00,8
ST-219,162. 봉원고가차도 밑,13,서대문구,120160,서울특별시 서대문구 대신동 143-1,봉원고가차도 밑,37.56526947,126.9462433,Y,2016-06-29 12:00,15
ST-22,120. 신수동 사거리,12,마포구,4088,서울특별시 마포구 토정로 211,371-11,37.54524231,126.9341126,Y,2015-09-07 1:34,5
ST-220,163. 명지전문대학교 정문 앞,13,서대문구,120100,서울특별시 서대문구 홍은동 산25-3,명지전문대학교 정문 앞,37.58369827,126.9249649,Y,2016-06-29 12:00,7
ST-221,164. 북가좌1동 주민센터 ,13,서대문구,120130,서울특별시 서대문구 북가좌동 477-1,북가좌1동 주민센터 ,37.57447815,126.9100494,Y,2016-06-29 12:00,10
ST-222,165. 중앙근린공원,13,서대문구,120130,서울특별시 서대문구 북가좌동 470-1,모래내 우체국,37.57513809,126.9139404,Y,2016-06-29 12:00,20
ST-223,166. 가재울 초등학교,13,서대문구,120832,서울특별시 서대문구 연희동 530,남가좌1동 주민센터,37.57327652,126.9196777,Y,2016-06-29 12:00,20
ST-224,167. 연가초등학교 옆,13,서대문구,120130,서울특별시 서대문구 북가좌동 70-119,연가초등학교 옆,37.57946014,126.9171295,Y,2016-06-29 12:00,15
ST-225,168. 남가좌동 사거리,13,서대문구,120120,서울특별시 서대문구 남가좌동 185-21,남가좌동 시장삼거리,37.5662117,126.8961792,N,2016-06-29 12:00,20
ST-226,169. 북가좌 삼거리,13,서대문구,120130,서울특별시 서대문구 북가좌동 400,북가좌 삼거리,37.57300186,126.9077988,Y,2016-06-29 12:00,15
ST-227,170. 가재울 뉴타운 주유소 옆,13,서대문구,3711,서울특별시 서대문구 남가좌동 124,가재울 뉴타운 주유소 옆,37.57311249,126.9224472,Y,2016-06-29 12:00,10
ST-228,171. 임광빌딩 앞,13,서대문구,120020,서울특별시 서대문구 미근동 317-1,임광빌딩 앞,37.56472397,126.9672775,Y,2016-06-29 12:00,10
ST-229,99999. 영남단말기정비,2,정비센터,7301,서울특별시 영등포구 영등포로34길 9,영남주차장,-88.48467255,84.24073029,Y,2016-06-29 12:00,8
ST-23,121. 마포소방서 앞,12,마포구,4098,서울특별시 마포구 창전로 76,100-18,37.54976654,126.9331741,Y,2015-09-07 10:30,15
ST-230,173. 서대문역 8번출구 앞,13,서대문구,120012,서울특별시 서대문구 충정로2가 138,서대문역 8번출구 앞,37.56477737,126.9661484,Y,2016-06-29 12:00,8
ST-231,175. 홍연2교옆,13,서대문구,120100,서울특별시 서대문구 홍은동 387-16,홍연2교옆,37.57807159,126.9308167,Y,2016-06-29 12:00,20
ST-232,179. 가좌역 4번출구 앞,13,서대문구,120120,서울특별시 서대문구 남가좌동 293-3 ,가좌역 4번출구 앞,37.56912231,126.9147949,Y,2016-06-29 12:00,15
